#version,serial,flight,call,time,state,state_name,acceleration,pressure,altitude,height,speed,temperature,drogue_voltage,main_voltage,battery_voltage,accel_x,accel_y,accel_z,gyro_roll,gyro_pitch,gyro_yaw,mag_x,mag_y,mag_z,tilt,pyro,igniter_a,igniter_b,igniter_c,igniter_d,connected,locked,nsat,latitude,longitude,altitude,year,month,day,hour,minute,second,pad_dist,pad_range,pad_az,pad_el,pdop,hdop,vdop,sat01,sat02,sat03,sat04,sat05,sat06,sat07,sat08,sat09,sat10,sat11,sat12,sat13,sat14,sat15,sat16,sat17,sat18,sat19,sat20,sat21,sat22,sat23,sat24,sat25,sat26,sat27,sat28,sat29,sat30,sat31,sat32
6, 11216, 6,KD9TQD,    -0.30, 3,   boost,   -0.50,  98786.00,  213.53,   -0.25,    0.00, 20.2, 4.17, 4.17, 4.19,   9.44,   0.28,   0.01,   0.71,  -0.22,   0.08,   0.21,   0.13,   0.30,   1.32, 4.17, 0.00, 0.00, 0.00, 4.17, 1, 1,  7,  42.6264594, -88.1615644,   260.0, 2024, 10, 12, 20,  0, 53,        0,        0,   0,   0,   1.9,   1.0,   1.6,  0, 18, 24, 28,  0,  0,  0,  0,  0,  0,  0,  0,  0,  0,  0, 27,  0,  0,  0,  0,  0,  0,  0,  0, 33, 35,  0, 35, 35,  0,  0, 37
6, 11216, 6,KD9TQD,    -0.29, 3,   boost,   -0.00,  98786.00,  213.53,   -0.25,    0.00, 20.2, 4.17, 4.17, 4.19,   9.55,  -0.04,   0.00,   3.58,   0.09,  -0.16,   0.21,   0.13,   0.30,   1.32, 4.17, 0.00, 0.00, 0.00, 4.17, 1, 1,  7,  42.6264594, -88.1615644,   260.0, 2024, 10, 12, 20,  0, 53,        0,        0,   0,   0,   1.9,   1.0,   1.6,  0, 18, 24, 28,  0,  0,  0,  0,  0,  0,  0,  0,  0,  0,  0, 27,  0,  0,  0,  0,  0,  0,  0,  0, 33, 35,  0, 35, 35,  0,  0, 37
6, 11216, 6,KD9TQD,    -0.28, 3,   boost,   -1.51,  98791.00,  213.10,   -0.68,    0.00, 20.2, 4.17, 4.17, 4.19,   9.30,  -1.08,  -0.34,  17.87,   0.52,  -0.53,   0.21,   0.13,   0.30,   1.32, 4.17, 0.00, 0.00, 0.00, 4.17, 1, 1,  7,  42.6264594, -88.1615644,   260.0, 2024, 10, 12, 20,  0, 53,        0,        0,   0,   0,   1.9,   1.0,   1.6,  0, 18, 24, 28,  0,  0,  0,  0,  0,  0,  0,  0,  0,  0,  0, 27,  0,  0,  0,  0,  0,  0,  0,  0, 33, 35,  0, 35, 35,  0,  0, 37
6, 11216, 6,KD9TQD,    -0.27, 3,   boost,   -1.51,  98791.00,  213.10,   -0.68,    0.00, 20.2, 4.17, 4.17, 4.19,  11.47,   0.68,  -0.73,  20.31,   2.35,  -0.53,   0.21,   0.13,   0.30,   1.32, 4.17, 0.00, 0.00, 0.00, 4.17, 1, 1,  7,  42.6264594, -88.1615644,   260.0, 2024, 10, 12, 20,  0, 53,        0,        0,   0,   0,   1.9,   1.0,   1.6,  0, 18, 24, 28,  0,  0,  0,  0,  0,  0,  0,  0,  0,  0,  0, 27,  0,  0,  0,  0,  0,  0,  0,  0, 33, 35,  0, 35, 35,  0,  0, 37
6, 11216, 6,KD9TQD,    -0.26, 3,   boost,    1.51,  98788.00,  213.36,   -0.42,    0.00, 20.2, 4.17, 4.17, 4.19,   8.71,   0.04,  -0.13,  14.33,   1.07,   1.91,   0.21,   0.13,   0.30,   1.32, 4.17, 0.00, 0.00, 0.00, 4.17, 1, 1,  7,  42.6264594, -88.1615644,   260.0, 2024, 10, 12, 20,  0, 53,        0,        0,   0,   0,   1.9,   1.0,   1.6,  0, 18, 24, 28,  0,  0,  0,  0,  0,  0,  0,  0,  0,  0,  0, 27,  0,  0,  0,  0,  0,  0,  0,  0, 33, 35,  0, 35, 35,  0,  0, 37
6, 11216, 6,KD9TQD,    -0.25, 3,   boost,   -1.51,  98788.00,  213.36,   -0.42,    0.00, 20.2, 4.17, 4.17, 4.19,   9.94,   0.27,  -0.99,   7.25,  -1.56,   0.69,   0.21,   0.13,   0.30,   1.32, 4.17, 0.00, 0.00, 0.00, 4.17, 1, 1,  7,  42.6264594, -88.1615644,   260.0, 2024, 10, 12, 20,  0, 53,        0,        0,   0,   0,   1.9,   1.0,   1.6,  0, 18, 24, 28,  0,  0,  0,  0,  0,  0,  0,  0,  0,  0,  0, 27,  0,  0,  0,  0,  0,  0,  0,  0, 33, 35,  0, 35, 35,  0,  0, 37
6, 11216, 6,KD9TQD,    -0.24, 3,   boost,   -0.50,  98779.00,  214.12,    0.34,    0.00, 20.2, 4.17, 4.17, 4.19,   9.67,   0.19,  -0.93,   6.09,  -0.83,   0.63,   0.21,   0.13,   0.30,   1.32, 4.17, 0.00, 0.00, 0.00, 4.17, 1, 1,  7,  42.6264594, -88.1615644,   260.0, 2024, 10, 12, 20,  0, 53,        0,        0,   0,   0,   1.9,   1.0,   1.6,  0, 18, 24, 28,  0,  0,  0,  0,  0,  0,  0,  0,  0,  0,  0, 27,  0,  0,  0,  0,  0,  0,  0,  0, 33, 35,  0, 35, 35,  0,  0, 37
6, 11216, 6,KD9TQD,    -0.23, 3,   boost,   -0.00,  98779.00,  214.12,    0.34,    0.00, 20.2, 4.17, 4.17, 4.19,  10.03,   1.26,  -0.55,   7.67,  -2.05,   0.82,   0.21,   0.13,   0.30,   1.32, 4.17, 0.00, 0.00, 0.00, 4.17, 1, 1,  7,  42.6264594, -88.1615644,   260.0, 2024, 10, 12, 20,  0, 53,        0,        0,   0,   0,   1.9,   1.0,   1.6,  0, 18, 24, 28,  0,  0,  0,  0,  0,  0,  0,  0,  0,  0,  0, 27,  0,  0,  0,  0,  0,  0,  0,  0, 33, 35,  0, 35, 35,  0,  0, 37
6, 11216, 6,KD9TQD,    -0.22, 3,   boost,    1.51,  98787.00,  213.44,   -0.34,    0.00, 20.2, 4.17, 4.17, 4.19,   9.66,   0.65,   0.75,  -2.34,  -1.25,   0.21,   0.21,   0.13,   0.30,   1.32, 4.17, 0.00, 0.00, 0.00, 4.17, 1, 1,  7,  42.6264594, -88.1615644,   260.0, 2024, 10, 12, 20,  0, 53,        0,        0,   0,   0,   1.9,   1.0,   1.6,  0, 18, 24, 28,  0,  0,  0,  0,  0,  0,  0,  0,  0,  0,  0, 27,  0,  0,  0,  0,  0,  0,  0,  0, 33, 35,  0, 35, 35,  0,  0, 37
6, 11216, 6,KD9TQD,    -0.21, 3,   boost,   -1.51,  98787.00,  213.44,   -0.34,    0.00, 20.2, 4.17, 4.17, 4.19,  10.14,   0.67,   0.06,  -7.95,  -2.05,  -0.47,   0.21,   0.13,   0.30,   1.32, 4.17, 0.00, 0.00, 0.00, 4.17, 1, 1,  7,  42.6264594, -88.1615644,   260.0, 2024, 10, 12, 20,  0, 53,        0,        0,   0,   0,   1.9,   1.0,   1.6,  0, 18, 24, 28,  0,  0,  0,  0,  0,  0,  0,  0,  0,  0,  0, 27,  0,  0,  0,  0,  0,  0,  0,  0, 33, 35,  0, 35, 35,  0,  0, 37
6, 11216, 6,KD9TQD,    -0.20, 3,   boost,   -1.01,  98774.00,  214.55,    0.76,    0.00, 20.2, 4.17, 4.17, 4.19,   9.64,  -0.19,   0.15,  -5.27,  -0.95,  -0.04,   0.21,   0.13,   0.30,   1.32, 4.17, 0.00, 0.00, 0.00, 4.17, 1, 1,  7,  42.6264594, -88.1615644,   260.0, 2024, 10, 12, 20,  0, 53,        0,        0,   0,   0,   1.9,   1.0,   1.6,  0, 18, 24, 28,  0,  0,  0,  0,  0,  0,  0,  0,  0,  0,  0, 27,  0,  0,  0,  0,  0,  0,  0,  0, 33, 35,  0, 35, 35,  0,  0, 37
6, 11216, 6,KD9TQD,    -0.19, 3,   boost,    1.51,  98774.00,  214.55,    0.76,    0.02, 20.2, 4.17, 4.17, 4.19,   9.61,   0.37,   0.23,   0.41,   0.52,  -1.08,   0.21,   0.13,   0.30,   1.32, 4.17, 0.00, 0.00, 0.00, 4.17, 1, 1,  7,  42.6264594, -88.1615644,   260.0, 2024, 10, 12, 20,  0, 53,        0,        0,   0,   0,   1.9,   1.0,   1.6,  0, 18, 24, 28,  0,  0,  0,  0,  0,  0,  0,  0,  0,  0,  0, 27,  0,  0,  0,  0,  0,  0,  0,  0, 33, 35,  0, 35, 35,  0,  0, 37
6, 11216, 6,KD9TQD,    -0.18, 3,   boost,   -0.50,  98782.00,  213.87,    0.08,    0.06, 20.2, 4.17, 4.17, 4.19,  10.06,  -0.44,  -0.56,  -1.06,  -0.03,  -0.65,   0.21,   0.13,   0.30,   1.32, 4.17, 0.00, 0.00, 0.00, 4.17, 1, 1,  7,  42.6264594, -88.1615644,   260.0, 2024, 10, 12, 20,  0, 53,        0,        0,   0,   0,   1.9,   1.0,   1.6,  0, 18, 24, 28,  0,  0,  0,  0,  0,  0,  0,  0,  0,  0,  0, 27,  0,  0,  0,  0,  0,  0,  0,  0, 33, 35,  0, 35, 35,  0,  0, 37
6, 11216, 6,KD9TQD,    -0.17, 3,   boost,   -0.00,  98782.00,  213.87,    0.08,    0.16, 20.2, 4.17, 4.17, 4.19,  10.22,  -0.03,  -0.17,  -3.99,  -1.07,  -0.89,   0.21,   0.13,   0.30,   1.32, 4.17, 0.00, 0.00, 0.00, 4.17, 1, 1,  7,  42.6264594, -88.1615644,   260.0, 2024, 10, 12, 20,  0, 53,        0,        0,   0,   0,   1.9,   1.0,   1.6,  0, 18, 24, 28,  0,  0,  0,  0,  0,  0,  0,  0,  0,  0,  0, 27,  0,  0,  0,  0,  0,  0,  0,  0, 33, 35,  0, 35, 35,  0,  0, 37
6, 11216, 6,KD9TQD,    -0.16, 3,   boost,   32.19,  98789.00,  213.27,   -0.51,    0.32, 20.2, 4.17, 4.17, 4.19,  10.48,   1.89,   0.39, -15.83,  -0.64,   0.21,   0.21,   0.12,   0.30,   1.32, 4.17, 0.00, 0.00, 0.00, 4.17, 1, 1,  7,  42.6264594, -88.1615644,   260.0, 2024, 10, 12, 20,  0, 53,        0,        0,   0,   0,   1.9,   1.0,   1.6,  0, 18, 24, 28,  0,  0,  0,  0,  0,  0,  0,  0,  0,  0,  0, 27,  0,  0,  0,  0,  0,  0,  0,  0, 33, 35,  0, 35, 35,  0,  0, 37
6, 11216, 6,KD9TQD,    -0.15, 3,   boost,   35.20,  98789.00,  213.27,   -0.51,    0.55, 20.2, 4.17, 4.17, 4.19,  44.97,   2.82,  -2.84, -74.79,   0.09,   1.37,   0.21,   0.12,   0.30,   1.32, 4.17, 0.00, 0.00, 0.00, 4.17, 1, 1,  7,  42.6264594, -88.1615644,   260.0, 2024, 10, 12, 20,  0, 53,        0,        0,   0,   0,   1.9,   1.0,   1.6,  0, 18, 24, 28,  0,  0,  0,  0,  0,  0,  0,  0,  0,  0,  0, 27,  0,  0,  0,  0,  0,  0,  0,  0, 33, 35,  0, 35, 35,  0,  0, 37
6, 11216, 6,KD9TQD,    -0.14, 3,   boost,   36.21,  98822.00,  210.47,   -3.31,    0.84, 20.2, 4.17, 4.17, 4.19,  47.36,  -1.19,   1.89, -85.16,  -0.58,  -3.82,   0.21,   0.12,   0.30,   1.32, 4.17, 0.00, 0.00, 0.00, 4.17, 1, 1,  7,  42.6264594, -88.1615644,   260.0, 2024, 10, 12, 20,  0, 53,        0,        0,   0,   0,   1.9,   1.0,   1.6,  0, 18, 24, 28,  0,  0,  0,  0,  0,  0,  0,  0,  0,  0,  0, 27,  0,  0,  0,  0,  0,  0,  0,  0, 33, 35,  0, 35, 35,  0,  0, 37
6, 11216, 6,KD9TQD,    -0.13, 3,   boost,   33.69,  98822.00,  210.47,   -3.31,    1.16, 20.2, 4.17, 4.17, 4.19,  44.48,   0.35,  -1.88, -72.71,  -6.38,  -7.24,   0.21,   0.12,   0.30,   1.32, 4.17, 0.00, 0.00, 0.00, 4.17, 1, 1,  7,  42.6264594, -88.1615644,   260.0, 2024, 10, 12, 20,  0, 53,        0,        0,   0,   0,   1.9,   1.0,   1.6,  0, 18, 24, 28,  0,  0,  0,  0,  0,  0,  0,  0,  0,  0,  0, 27,  0,  0,  0,  0,  0,  0,  0,  0, 33, 35,  0, 35, 35,  0,  0, 37
6, 11216, 6,KD9TQD,    -0.12, 3,   boost,   33.69,  98779.00,  214.12,    0.34,    1.51, 20.2, 4.17, 4.17, 4.19,  44.87,   0.93,  -2.28, -68.07,  -6.75,  -1.69,   0.21,   0.12,   0.30,   1.32, 4.17, 0.00, 0.00, 0.00, 4.17, 1, 1,  7,  42.6264594, -88.1615644,   260.0, 2024, 10, 12, 20,  0, 53,        0,        0,   0,   0,   1.9,   1.0,   1.6,  0, 18, 24, 28,  0,  0,  0,  0,  0,  0,  0,  0,  0,  0,  0, 27,  0,  0,  0,  0,  0,  0,  0,  0, 33, 35,  0, 35, 35,  0,  0, 37
6, 11216, 6,KD9TQD,    -0.11, 3,   boost,   35.20,  98779.00,  214.12,    0.34,    1.86, 20.2, 4.17, 4.17, 4.19,  41.34,   0.02,   3.41, -95.54,  -8.76,   1.18,   0.21,   0.12,   0.30,   1.32, 4.17, 0.00, 0.00, 0.00, 4.17, 1, 1,  7,  42.6264594, -88.1615644,   260.0, 2024, 10, 12, 20,  0, 53,        0,        0,   0,   0,   1.9,   1.0,   1.6,  0, 18, 24, 28,  0,  0,  0,  0,  0,  0,  0,  0,  0,  0,  0, 27,  0,  0,  0,  0,  0,  0,  0,  0, 33, 35,  0, 35, 35,  0,  0, 37
6, 11216, 6,KD9TQD,    -0.10, 3,   boost,   36.21,  98804.00,  212.00,   -1.78,    2.22, 20.2, 4.17, 4.17, 4.19,  43.91,  -8.32,  -4.20,-120.81,  -2.29,  -2.48,   0.21,   0.12,   0.30,   1.32, 4.17, 0.00, 0.00, 0.00, 4.17, 1, 1,  7,  42.6264594, -88.1615644,   260.0, 2024, 10, 12, 20,  0, 53,        0,        0,   0,   0,   1.9,   1.0,   1.6,  0, 18, 24, 28,  0,  0,  0,  0,  0,  0,  0,  0,  0,  0,  0, 27,  0,  0,  0,  0,  0,  0,  0,  0, 33, 35,  0, 35, 35,  0,  0, 37
6, 11216, 6,KD9TQD,    -0.09, 3,   boost,   36.71,  98804.00,  212.00,   -1.78,    2.58, 20.2, 4.17, 4.17, 4.19,  45.71,  -1.55,   3.71, -56.29,  -2.17, -11.02,   0.20,   0.11,   0.30,   1.32, 4.17, 0.00, 0.00, 0.00, 4.17, 1, 1,  7,  42.6264594, -88.1615644,   260.0, 2024, 10, 12, 20,  0, 53,        0,        0,   0,   0,   1.9,   1.0,   1.6,  0, 18, 24, 28,  0,  0,  0,  0,  0,  0,  0,  0,  0,  0,  0, 27,  0,  0,  0,  0,  0,  0,  0,  0, 33, 35,  0, 35, 35,  0,  0, 37
6, 11216, 6,KD9TQD,    -0.08, 3,   boost,   37.72,  98781.00,  213.95,    0.17,    2.94, 20.2, 4.17, 4.17, 4.19,  45.82,  -1.44,  -3.66, -84.06,  -3.82,  -5.41,   0.20,   0.10,   0.31,   1.32, 4.17, 0.00, 0.00, 0.00, 4.17, 1, 1,  7,  42.6264594, -88.1615644,   260.0, 2024, 10, 12, 20,  0, 53,        0,        0,   0,   0,   1.9,   1.0,   1.6,  0, 18, 24, 28,  0,  0,  0,  0,  0,  0,  0,  0,  0,  0,  0, 27,  0,  0,  0,  0,  0,  0,  0,  0, 33, 35,  0, 35, 35,  0,  0, 37
6, 11216, 6,KD9TQD,    -0.07, 3,   boost,   37.72,  98781.00,  213.95,    0.17,    3.31, 20.2, 4.17, 4.17, 4.19,  46.44,  -0.24,   0.55, -80.16,  -4.24,   7.77,   0.21,   0.10,   0.31,   1.32, 4.17, 0.00, 0.00, 0.00, 4.17, 1, 1,  7,  42.6264594, -88.1615644,   260.0, 2024, 10, 12, 20,  0, 53,        0,        0,   0,   0,   1.9,   1.0,   1.6,  0, 18, 24, 28,  0,  0,  0,  0,  0,  0,  0,  0,  0,  0,  0, 27,  0,  0,  0,  0,  0,  0,  0,  0, 33, 35,  0, 35, 35,  0,  0, 37
6, 11216, 6,KD9TQD,    -0.06, 3,   boost,   36.21,  98797.00,  212.59,   -1.19,    3.69, 20.2, 4.17, 4.17, 4.19,  45.89,  -2.76,   3.57, -85.83,  -9.07,   0.82,   0.21,   0.09,   0.31,   1.32, 4.17, 0.00, 0.00, 0.00, 4.17, 1, 1,  7,  42.6264594, -88.1615644,   260.0, 2024, 10, 12, 20,  0, 53,        0,        0,   0,   0,   1.9,   1.0,   1.6,  0, 18, 24, 28,  0,  0,  0,  0,  0,  0,  0,  0,  0,  0,  0, 27,  0,  0,  0,  0,  0,  0,  0,  0, 33, 35,  0, 35, 35,  0,  0, 37
6, 11216, 6,KD9TQD,    -0.05, 3,   boost,   35.71,  98797.00,  212.59,   -1.19,    4.06, 20.2, 4.17, 4.17, 4.19,  45.73,  -1.70,  -1.65, -81.62,   0.64,  -4.55,   0.21,   0.09,   0.31,   1.32, 4.17, 0.00, 0.00, 0.00, 4.17, 1, 1,  7,  42.6264594, -88.1615644,   260.0, 2024, 10, 12, 20,  0, 53,        0,        0,   0,   0,   1.9,   1.0,   1.6,  0, 18, 24, 28,  0,  0,  0,  0,  0,  0,  0,  0,  0,  0,  0, 27,  0,  0,  0,  0,  0,  0,  0,  0, 33, 35,  0, 35, 35,  0,  0, 37
6, 11216, 6,KD9TQD,    -0.04, 3,   boost,   39.23,  98795.00,  212.76,   -1.02,    4.43, 20.2, 4.17, 4.17, 4.19,  45.97,   3.20,   2.64, -64.53,   1.98,   3.14,   0.21,   0.09,   0.31,   1.32, 4.17, 0.00, 0.00, 0.00, 4.17, 1, 1,  7,  42.6264594, -88.1615644,   260.0, 2024, 10, 12, 20,  0, 53,        0,        0,   0,   0,   1.9,   1.0,   1.6,  0, 18, 24, 28,  0,  0,  0,  0,  0,  0,  0,  0,  0,  0,  0, 27,  0,  0,  0,  0,  0,  0,  0,  0, 33, 35,  0, 35, 35,  0,  0, 37
6, 11216, 6,KD9TQD,    -0.03, 3,   boost,   38.72,  98795.00,  212.76,   -1.02,    4.81, 20.2, 4.17, 4.17, 4.19,  45.81,  -1.89,   1.31, -48.72,  -0.22,   2.04,   0.21,   0.09,   0.31,   1.32, 4.17, 0.00, 0.00, 0.00, 4.17, 1, 1,  7,  42.6264594, -88.1615644,   260.0, 2024, 10, 12, 20,  0, 53,        0,        0,   0,   0,   1.9,   1.0,   1.6,  0, 18, 24, 28,  0,  0,  0,  0,  0,  0,  0,  0,  0,  0,  0, 27,  0,  0,  0,  0,  0,  0,  0,  0, 33, 35,  0, 35, 35,  0,  0, 37
6, 11216, 6,KD9TQD,    -0.02, 3,   boost,   38.22,  98788.00,  213.36,   -0.42,    5.20, 20.2, 4.17, 4.17, 4.19,  46.58,   1.70,   4.10, -55.80,   2.65,  -2.72,   0.21,   0.09,   0.30,   1.32, 4.17, 0.00, 0.00, 0.00, 4.17, 1, 1,  7,  42.6264594, -88.1615644,   260.0, 2024, 10, 12, 20,  0, 53,        0,        0,   0,   0,   1.9,   1.0,   1.6,  0, 18, 24, 28,  0,  0,  0,  0,  0,  0,  0,  0,  0,  0,  0, 27,  0,  0,  0,  0,  0,  0,  0,  0, 33, 35,  0, 35, 35,  0,  0, 37
6, 11216, 6,KD9TQD,    -0.01, 3,   boost,   38.72,  98788.00,  213.36,   -0.42,    5.59, 20.2, 4.17, 4.17, 4.19,  47.29,  -0.19,  -2.16, -69.84,   5.58,   0.76,   0.21,   0.09,   0.30,   1.32, 4.17, 0.00, 0.00, 0.00, 4.17, 1, 1,  7,  42.6264594, -88.1615644,   260.0, 2024, 10, 12, 20,  0, 53,        0,        0,   0,   0,   1.9,   1.0,   1.6,  0, 18, 24, 28,  0,  0,  0,  0,  0,  0,  0,  0,  0,  0,  0, 27,  0,  0,  0,  0,  0,  0,  0,  0, 33, 35,  0, 35, 35,  0,  0, 37
6, 11216, 6,KD9TQD,     0.00, 3,   boost,   38.72,  98774.00,  214.55,    0.76,    5.98, 20.2, 4.17, 4.17, 4.19,  47.32,  -2.58,   0.38, -55.80,   6.56,  -2.97,   0.21,   0.09,   0.30,   1.32, 4.17, 0.00, 0.00, 0.00, 4.17, 1, 1,  7,  42.6264594, -88.1615644,   260.0, 2024, 10, 12, 20,  0, 53,        0,        0,   0,   0,   1.9,   1.0,   1.6,  0, 18, 24, 28,  0,  0,  0,  0,  0,  0,  0,  0,  0,  0,  0, 27,  0,  0,  0,  0,  0,  0,  0,  0, 33, 35,  0, 35, 35,  0,  0, 37
6, 11216, 6,KD9TQD,     0.00, 3,   boost,   38.72,  98774.00,  214.55,    0.76,    5.98, 20.2, 4.17, 4.17, 4.19,  47.32,  -2.58,   0.38, -55.80,   6.56,  -2.97,   0.21,   0.09,   0.30,   1.32, 4.17, 0.00, 0.00, 0.00, 4.17, 1, 1,  7,  42.6264594, -88.1615644,   260.0, 2024, 10, 12, 20,  0, 53,        0,        0,   0,   0,   1.9,   1.0,   1.6,  0, 18, 24, 28,  0,  0,  0,  0,  0,  0,  0,  0,  0,  0,  0, 27,  0,  0,  0,  0,  0,  0,  0,  0, 33, 35,  0, 35, 35,  0,  0, 37
6, 11216, 6,KD9TQD,     0.00, 3,   boost,   38.72,  98774.00,  214.55,    0.76,    5.98, 20.2, 4.17, 4.17, 4.19,  47.32,  -2.58,   0.38, -55.80,   6.56,  -2.97,   0.21,   0.09,   0.30,   1.32, 4.17, 0.00, 0.00, 0.00, 4.17, 1, 1,  7,  42.6264594, -88.1615644,   260.0, 2024, 10, 12, 20,  0, 53,        0,        0,   0,   0,   1.9,   1.0,   1.6,  0, 18, 24, 28,  0,  0,  0,  0,  0,  0,  0,  0,  0,  0,  0, 27,  0,  0,  0,  0,  0,  0,  0,  0, 33, 35,  0, 35, 35,  0,  0, 37
6, 11216, 6,KD9TQD,     0.00, 3,   boost,   38.72,  98774.00,  214.55,    0.76,    5.98, 20.2, 4.17, 4.17, 4.19,  47.32,  -2.58,   0.38, -55.80,   6.56,  -2.97,   0.21,   0.09,   0.30,   1.32, 4.17, 0.00, 0.00, 0.00, 4.17, 1, 1,  7,  42.6264594, -88.1615644,   260.0, 2024, 10, 12, 20,  0, 53,        0,        0,   0,   0,   1.9,   1.0,   1.6,  0, 18, 24, 28,  0,  0,  0,  0,  0,  0,  0,  0,  0,  0,  0, 27,  0,  0,  0,  0,  0,  0,  0,  0, 33, 35,  0, 35, 35,  0,  0, 37
6, 11216, 6,KD9TQD,     0.00, 3,   boost,   38.72,  98774.00,  214.55,    0.76,    5.98, 20.2, 4.17, 4.17, 4.19,  47.32,  -2.58,   0.38, -55.80,   6.56,  -2.97,   0.21,   0.09,   0.30,   1.32, 4.17, 0.00, 0.00, 0.00, 4.17, 1, 1,  7,  42.6264594, -88.1615644,   260.0, 2024, 10, 12, 20,  0, 53,        0,        0,   0,   0,   1.9,   1.0,   1.6,  0, 18, 24, 28,  0,  0,  0,  0,  0,  0,  0,  0,  0,  0,  0, 27,  0,  0,  0,  0,  0,  0,  0,  0, 33, 35,  0, 35, 35,  0,  0, 37
6, 11216, 6,KD9TQD,     0.00, 3,   boost,   38.72,  98774.00,  214.55,    0.76,    5.98, 20.2, 4.17, 4.17, 4.19,  47.32,  -2.58,   0.38, -55.80,   6.56,  -2.97,   0.21,   0.09,   0.30,   1.32, 4.17, 0.00, 0.00, 0.00, 4.17, 1, 1,  7,  42.6264594, -88.1615644,   260.0, 2024, 10, 12, 20,  0, 53,        0,        0,   0,   0,   1.9,   1.0,   1.6,  0, 18, 24, 28,  0,  0,  0,  0,  0,  0,  0,  0,  0,  0,  0, 27,  0,  0,  0,  0,  0,  0,  0,  0, 33, 35,  0, 35, 35,  0,  0, 37
6, 11216, 6,KD9TQD,     0.00, 3,   boost,   38.72,  98774.00,  214.55,    0.76,    5.98, 20.2, 4.17, 4.17, 4.19,  47.32,  -2.58,   0.38, -55.80,   6.56,  -2.97,   0.21,   0.09,   0.30,   1.32, 4.17, 0.00, 0.00, 0.00, 4.17, 1, 1,  7,  42.6264594, -88.1615644,   260.0, 2024, 10, 12, 20,  0, 53,        0,        0,   0,   0,   1.9,   1.0,   1.6,  0, 18, 24, 28,  0,  0,  0,  0,  0,  0,  0,  0,  0,  0,  0, 27,  0,  0,  0,  0,  0,  0,  0,  0, 33, 35,  0, 35, 35,  0,  0, 37
6, 11216, 6,KD9TQD,     0.00, 3,   boost,   38.72,  98774.00,  214.55,    0.76,    5.98, 20.2, 4.17, 4.17, 4.19,  47.32,  -2.58,   0.38, -55.80,   6.56,  -2.97,   0.21,   0.09,   0.30,   1.34, 4.17, 0.00, 0.00, 0.00, 4.17, 1, 1,  7,  42.6264594, -88.1615644,   260.0, 2024, 10, 12, 20,  0, 53,        0,        0,   0,   0,   1.9,   1.0,   1.6,  0, 18, 24, 28,  0,  0,  0,  0,  0,  0,  0,  0,  0,  0,  0, 27,  0,  0,  0,  0,  0,  0,  0,  0, 33, 35,  0, 35, 35,  0,  0, 37
6, 11216, 6,KD9TQD,     0.00, 3,   boost,   38.72,  98774.00,  214.55,    0.76,    5.98, 20.2, 4.17, 4.17, 4.19,  47.32,  -2.58,   0.38, -55.80,   6.56,  -2.97,   0.21,   0.09,   0.30,   1.35, 4.17, 0.00, 0.00, 0.00, 4.17, 1, 1,  7,  42.6264594, -88.1615644,   260.0, 2024, 10, 12, 20,  0, 53,        0,        0,   0,   0,   1.9,   1.0,   1.6,  0, 18, 24, 28,  0,  0,  0,  0,  0,  0,  0,  0,  0,  0,  0, 27,  0,  0,  0,  0,  0,  0,  0,  0, 33, 35,  0, 35, 35,  0,  0, 37
6, 11216, 6,KD9TQD,     0.00, 3,   boost,   38.72,  98774.00,  214.55,    0.76,    5.98, 20.2, 4.17, 4.17, 4.19,  47.32,  -2.58,   0.38, -55.80,   6.56,  -2.97,   0.21,   0.09,   0.30,   1.34, 4.17, 0.00, 0.00, 0.00, 4.17, 1, 1,  7,  42.6264594, -88.1615644,   260.0, 2024, 10, 12, 20,  0, 53,        0,        0,   0,   0,   1.9,   1.0,   1.6,  0, 18, 24, 28,  0,  0,  0,  0,  0,  0,  0,  0,  0,  0,  0, 27,  0,  0,  0,  0,  0,  0,  0,  0, 33, 35,  0, 35, 35,  0,  0, 37
6, 11216, 6,KD9TQD,     0.00, 3,   boost,   38.72,  98774.00,  214.55,    0.76,    5.98, 20.2, 4.17, 4.17, 4.19,  47.32,  -2.58,   0.38, -55.80,   6.56,  -2.97,   0.21,   0.09,   0.30,   1.34, 4.17, 0.00, 0.00, 0.00, 4.17, 1, 1,  7,  42.6264594, -88.1615644,   260.0, 2024, 10, 12, 20,  0, 53,        0,        0,   0,   0,   1.9,   1.0,   1.6,  0, 18, 24, 28,  0,  0,  0,  0,  0,  0,  0,  0,  0,  0,  0, 27,  0,  0,  0,  0,  0,  0,  0,  0, 33, 35,  0, 35, 35,  0,  0, 37
6, 11216, 6,KD9TQD,     0.00, 3,   boost,   38.72,  98774.00,  214.55,    0.76,    5.98, 20.2, 4.17, 4.17, 4.19,  47.32,  -2.58,   0.38, -55.80,   6.56,  -2.97,   0.21,   0.09,   0.30,   1.33, 4.17, 0.00, 0.00, 0.00, 4.17, 1, 1,  7,  42.6264594, -88.1615644,   260.0, 2024, 10, 12, 20,  0, 53,        0,        0,   0,   0,   1.9,   1.0,   1.6,  0, 18, 24, 28,  0,  0,  0,  0,  0,  0,  0,  0,  0,  0,  0, 27,  0,  0,  0,  0,  0,  0,  0,  0, 33, 35,  0, 35, 35,  0,  0, 37
6, 11216, 6,KD9TQD,     0.00, 3,   boost,   38.72,  98774.00,  214.55,    0.76,    5.98, 20.2, 4.17, 4.17, 4.19,  47.32,  -2.58,   0.38, -55.80,   6.56,  -2.97,   0.21,   0.09,   0.30,   1.32, 4.17, 0.00, 0.00, 0.00, 4.17, 1, 1,  7,  42.6264594, -88.1615644,   260.0, 2024, 10, 12, 20,  0, 53,        0,        0,   0,   0,   1.9,   1.0,   1.6,  0, 18, 24, 28,  0,  0,  0,  0,  0,  0,  0,  0,  0,  0,  0, 27,  0,  0,  0,  0,  0,  0,  0,  0, 33, 35,  0, 35, 35,  0,  0, 37
6, 11216, 6,KD9TQD,     0.00, 3,   boost,   38.72,  98774.00,  214.55,    0.76,    5.98, 20.2, 4.17, 4.17, 4.19,  47.32,  -2.58,   0.38, -55.80,   6.56,  -2.97,   0.21,   0.09,   0.30,   1.30, 4.17, 0.00, 0.00, 0.00, 4.17, 1, 1,  7,  42.6264594, -88.1615644,   260.0, 2024, 10, 12, 20,  0, 53,        0,        0,   0,   0,   1.9,   1.0,   1.6,  0, 18, 24, 28,  0,  0,  0,  0,  0,  0,  0,  0,  0,  0,  0, 27,  0,  0,  0,  0,  0,  0,  0,  0, 33, 35,  0, 35, 35,  0,  0, 37
6, 11216, 6,KD9TQD,     0.00, 3,   boost,   38.72,  98774.00,  214.55,    0.76,    5.98, 20.2, 4.17, 4.17, 4.19,  47.32,  -2.58,   0.38, -55.80,   6.56,  -2.97,   0.21,   0.09,   0.30,   1.29, 4.17, 0.00, 0.00, 0.00, 4.17, 1, 1,  7,  42.6264594, -88.1615644,   260.0, 2024, 10, 12, 20,  0, 53,        0,        0,   0,   0,   1.9,   1.0,   1.6,  0, 18, 24, 28,  0,  0,  0,  0,  0,  0,  0,  0,  0,  0,  0, 27,  0,  0,  0,  0,  0,  0,  0,  0, 33, 35,  0, 35, 35,  0,  0, 37
6, 11216, 6,KD9TQD,     0.00, 3,   boost,   38.72,  98774.00,  214.55,    0.76,    5.98, 20.2, 4.17, 4.17, 4.19,  47.32,  -2.58,   0.38, -55.80,   6.56,  -2.97,   0.21,   0.09,   0.30,   1.29, 4.17, 0.00, 0.00, 0.00, 4.17, 1, 1,  7,  42.6264594, -88.1615644,   260.0, 2024, 10, 12, 20,  0, 53,        0,        0,   0,   0,   1.9,   1.0,   1.6,  0, 18, 24, 28,  0,  0,  0,  0,  0,  0,  0,  0,  0,  0,  0, 27,  0,  0,  0,  0,  0,  0,  0,  0, 33, 35,  0, 35, 35,  0,  0, 37
6, 11216, 6,KD9TQD,     0.00, 3,   boost,   38.72,  98774.00,  214.55,    0.76,    5.98, 20.2, 4.17, 4.17, 4.19,  47.32,  -2.58,   0.38, -55.80,   6.56,  -2.97,   0.21,   0.09,   0.30,   1.28, 4.17, 0.00, 0.00, 0.00, 4.17, 1, 1,  7,  42.6264594, -88.1615644,   260.0, 2024, 10, 12, 20,  0, 53,        0,        0,   0,   0,   1.9,   1.0,   1.6,  0, 18, 24, 28,  0,  0,  0,  0,  0,  0,  0,  0,  0,  0,  0, 27,  0,  0,  0,  0,  0,  0,  0,  0, 33, 35,  0, 35, 35,  0,  0, 37
6, 11216, 6,KD9TQD,     0.00, 3,   boost,   38.72,  98774.00,  214.55,    0.76,    5.98, 20.2, 4.17, 4.17, 4.19,  47.32,  -2.58,   0.38, -55.80,   6.56,  -2.97,   0.21,   0.09,   0.30,   1.27, 4.17, 0.00, 0.00, 0.00, 4.17, 1, 1,  7,  42.6264594, -88.1615644,   260.0, 2024, 10, 12, 20,  0, 53,        0,        0,   0,   0,   1.9,   1.0,   1.6,  0, 18, 24, 28,  0,  0,  0,  0,  0,  0,  0,  0,  0,  0,  0, 27,  0,  0,  0,  0,  0,  0,  0,  0, 33, 35,  0, 35, 35,  0,  0, 37
6, 11216, 6,KD9TQD,     0.00, 3,   boost,   38.72,  98774.00,  214.55,    0.76,    5.98, 20.2, 4.17, 4.17, 4.19,  47.32,  -2.58,   0.38, -55.80,   6.56,  -2.97,   0.21,   0.09,   0.30,   1.26, 4.17, 0.00, 0.00, 0.00, 4.17, 1, 1,  7,  42.6264594, -88.1615644,   260.0, 2024, 10, 12, 20,  0, 53,        0,        0,   0,   0,   1.9,   1.0,   1.6,  0, 18, 24, 28,  0,  0,  0,  0,  0,  0,  0,  0,  0,  0,  0, 27,  0,  0,  0,  0,  0,  0,  0,  0, 33, 35,  0, 35, 35,  0,  0, 37
6, 11216, 6,KD9TQD,     0.00, 3,   boost,   38.72,  98774.00,  214.55,    0.76,    5.98, 20.2, 4.17, 4.17, 4.19,  47.32,  -2.58,   0.38, -55.80,   6.56,  -2.97,   0.21,   0.09,   0.30,   1.27, 4.17, 0.00, 0.00, 0.00, 4.17, 1, 1,  7,  42.6264594, -88.1615644,   260.0, 2024, 10, 12, 20,  0, 53,        0,        0,   0,   0,   1.9,   1.0,   1.6,  0, 18, 24, 28,  0,  0,  0,  0,  0,  0,  0,  0,  0,  0,  0, 27,  0,  0,  0,  0,  0,  0,  0,  0, 33, 35,  0, 35, 35,  0,  0, 37
6, 11216, 6,KD9TQD,     0.00, 3,   boost,   38.72,  98774.00,  214.55,    0.76,    5.98, 20.2, 4.17, 4.17, 4.19,  47.32,  -2.58,   0.38, -55.80,   6.56,  -2.97,   0.21,   0.09,   0.30,   1.25, 4.17, 0.00, 0.00, 0.00, 4.17, 1, 1,  7,  42.6264594, -88.1615644,   260.0, 2024, 10, 12, 20,  0, 53,        0,        0,   0,   0,   1.9,   1.0,   1.6,  0, 18, 24, 28,  0,  0,  0,  0,  0,  0,  0,  0,  0,  0,  0, 27,  0,  0,  0,  0,  0,  0,  0,  0, 33, 35,  0, 35, 35,  0,  0, 37
6, 11216, 6,KD9TQD,     0.00, 3,   boost,   38.72,  98774.00,  214.55,    0.76,    5.98, 20.2, 4.17, 4.17, 4.19,  47.32,  -2.58,   0.38, -55.80,   6.56,  -2.97,   0.21,   0.09,   0.30,   1.16, 4.17, 0.00, 0.00, 0.00, 4.17, 1, 1,  7,  42.6264594, -88.1615644,   260.0, 2024, 10, 12, 20,  0, 53,        0,        0,   0,   0,   1.9,   1.0,   1.6,  0, 18, 24, 28,  0,  0,  0,  0,  0,  0,  0,  0,  0,  0,  0, 27,  0,  0,  0,  0,  0,  0,  0,  0, 33, 35,  0, 35, 35,  0,  0, 37
6, 11216, 6,KD9TQD,     0.00, 3,   boost,   38.72,  98774.00,  214.55,    0.76,    5.98, 20.2, 4.17, 4.17, 4.19,  47.32,  -2.58,   0.38, -55.80,   6.56,  -2.97,   0.21,   0.09,   0.30,   1.09, 4.17, 0.00, 0.00, 0.00, 4.17, 1, 1,  7,  42.6264594, -88.1615644,   260.0, 2024, 10, 12, 20,  0, 53,        0,        0,   0,   0,   1.9,   1.0,   1.6,  0, 18, 24, 28,  0,  0,  0,  0,  0,  0,  0,  0,  0,  0,  0, 27,  0,  0,  0,  0,  0,  0,  0,  0, 33, 35,  0, 35, 35,  0,  0, 37
6, 11216, 6,KD9TQD,     0.00, 3,   boost,   38.72,  98774.00,  214.55,    0.76,    5.98, 20.2, 4.17, 4.17, 4.19,  47.32,  -2.58,   0.38, -55.80,   6.56,  -2.97,   0.21,   0.09,   0.30,   1.02, 4.17, 0.00, 0.00, 0.00, 4.17, 1, 1,  7,  42.6264594, -88.1615644,   260.0, 2024, 10, 12, 20,  0, 53,        0,        0,   0,   0,   1.9,   1.0,   1.6,  0, 18, 24, 28,  0,  0,  0,  0,  0,  0,  0,  0,  0,  0,  0, 27,  0,  0,  0,  0,  0,  0,  0,  0, 33, 35,  0, 35, 35,  0,  0, 37
6, 11216, 6,KD9TQD,     0.00, 3,   boost,   38.72,  98774.00,  214.55,    0.76,    5.98, 20.2, 4.17, 4.17, 4.19,  47.32,  -2.58,   0.38, -55.80,   6.56,  -2.97,   0.21,   0.09,   0.30,   0.99, 4.17, 0.00, 0.00, 0.00, 4.17, 1, 1,  7,  42.6264594, -88.1615644,   260.0, 2024, 10, 12, 20,  0, 53,        0,        0,   0,   0,   1.9,   1.0,   1.6,  0, 18, 24, 28,  0,  0,  0,  0,  0,  0,  0,  0,  0,  0,  0, 27,  0,  0,  0,  0,  0,  0,  0,  0, 33, 35,  0, 35, 35,  0,  0, 37
6, 11216, 6,KD9TQD,     0.00, 3,   boost,   38.72,  98774.00,  214.55,    0.76,    5.98, 20.2, 4.17, 4.17, 4.19,  47.32,  -2.58,   0.38, -55.80,   6.56,  -2.97,   0.21,   0.09,   0.30,   0.93, 4.17, 0.00, 0.00, 0.00, 4.17, 1, 1,  7,  42.6264594, -88.1615644,   260.0, 2024, 10, 12, 20,  0, 53,        0,        0,   0,   0,   1.9,   1.0,   1.6,  0, 18, 24, 28,  0,  0,  0,  0,  0,  0,  0,  0,  0,  0,  0, 27,  0,  0,  0,  0,  0,  0,  0,  0, 33, 35,  0, 35, 35,  0,  0, 37
6, 11216, 6,KD9TQD,     0.00, 3,   boost,   38.72,  98774.00,  214.55,    0.76,    5.98, 20.2, 4.17, 4.17, 4.19,  47.32,  -2.58,   0.38, -55.80,   6.56,  -2.97,   0.21,   0.09,   0.30,   0.88, 4.17, 0.00, 0.00, 0.00, 4.17, 1, 1,  7,  42.6264594, -88.1615644,   260.0, 2024, 10, 12, 20,  0, 53,        0,        0,   0,   0,   1.9,   1.0,   1.6,  0, 18, 24, 28,  0,  0,  0,  0,  0,  0,  0,  0,  0,  0,  0, 27,  0,  0,  0,  0,  0,  0,  0,  0, 33, 35,  0, 35, 35,  0,  0, 37
6, 11216, 6,KD9TQD,     0.00, 3,   boost,   38.72,  98774.00,  214.55,    0.76,    5.98, 20.2, 4.17, 4.17, 4.19,  47.32,  -2.58,   0.38, -55.80,   6.56,  -2.97,   0.21,   0.09,   0.30,   0.86, 4.17, 0.00, 0.00, 0.00, 4.17, 1, 1,  7,  42.6264594, -88.1615644,   260.0, 2024, 10, 12, 20,  0, 53,        0,        0,   0,   0,   1.9,   1.0,   1.6,  0, 18, 24, 28,  0,  0,  0,  0,  0,  0,  0,  0,  0,  0,  0, 27,  0,  0,  0,  0,  0,  0,  0,  0, 33, 35,  0, 35, 35,  0,  0, 37
6, 11216, 6,KD9TQD,     0.00, 3,   boost,   38.72,  98774.00,  214.55,    0.76,    5.98, 20.2, 4.17, 4.17, 4.19,  47.32,  -2.58,   0.38, -55.80,   6.56,  -2.97,   0.21,   0.09,   0.30,   0.77, 4.17, 0.00, 0.00, 0.00, 4.17, 1, 1,  7,  42.6264594, -88.1615644,   260.0, 2024, 10, 12, 20,  0, 53,        0,        0,   0,   0,   1.9,   1.0,   1.6,  0, 18, 24, 28,  0,  0,  0,  0,  0,  0,  0,  0,  0,  0,  0, 27,  0,  0,  0,  0,  0,  0,  0,  0, 33, 35,  0, 35, 35,  0,  0, 37
6, 11216, 6,KD9TQD,     0.00, 3,   boost,   38.72,  98774.00,  214.55,    0.76,    5.98, 20.2, 4.17, 4.17, 4.19,  47.32,  -2.58,   0.38, -55.80,   6.56,  -2.97,   0.21,   0.09,   0.30,   0.77, 4.17, 0.00, 0.00, 0.00, 4.17, 1, 1,  7,  42.6264594, -88.1615644,   260.0, 2024, 10, 12, 20,  0, 53,        0,        0,   0,   0,   1.9,   1.0,   1.6,  0, 18, 24, 28,  0,  0,  0,  0,  0,  0,  0,  0,  0,  0,  0, 27,  0,  0,  0,  0,  0,  0,  0,  0, 33, 35,  0, 35, 35,  0,  0, 37
6, 11216, 6,KD9TQD,     0.00, 3,   boost,   38.72,  98774.00,  214.55,    0.76,    5.98, 20.2, 4.17, 4.17, 4.19,  47.32,  -2.58,   0.38, -55.80,   6.56,  -2.97,   0.21,   0.09,   0.30,   0.79, 4.17, 0.00, 0.00, 0.00, 4.17, 1, 1,  7,  42.6264594, -88.1615644,   260.0, 2024, 10, 12, 20,  0, 53,        0,        0,   0,   0,   1.9,   1.0,   1.6,  0, 18, 24, 28,  0,  0,  0,  0,  0,  0,  0,  0,  0,  0,  0, 27,  0,  0,  0,  0,  0,  0,  0,  0, 33, 35,  0, 35, 35,  0,  0, 37
6, 11216, 6,KD9TQD,     0.00, 3,   boost,   38.72,  98774.00,  214.55,    0.76,    5.98, 20.2, 4.17, 4.17, 4.19,  47.32,  -2.58,   0.38, -55.80,   6.56,  -2.97,   0.21,   0.09,   0.30,   0.80, 4.17, 0.00, 0.00, 0.00, 4.17, 1, 1,  7,  42.6264594, -88.1615644,   260.0, 2024, 10, 12, 20,  0, 53,        0,        0,   0,   0,   1.9,   1.0,   1.6,  0, 18, 24, 28,  0,  0,  0,  0,  0,  0,  0,  0,  0,  0,  0, 27,  0,  0,  0,  0,  0,  0,  0,  0, 33, 35,  0, 35, 35,  0,  0, 37
6, 11216, 6,KD9TQD,     0.00, 3,   boost,   38.72,  98774.00,  214.55,    0.76,    5.98, 20.2, 4.17, 4.17, 4.19,  47.32,  -2.58,   0.38, -55.80,   6.56,  -2.97,   0.21,   0.09,   0.30,   0.82, 4.17, 0.00, 0.00, 0.00, 4.17, 1, 1,  7,  42.6264594, -88.1615644,   260.0, 2024, 10, 12, 20,  0, 53,        0,        0,   0,   0,   1.9,   1.0,   1.6,  0, 18, 24, 28,  0,  0,  0,  0,  0,  0,  0,  0,  0,  0,  0, 27,  0,  0,  0,  0,  0,  0,  0,  0, 33, 35,  0, 35, 35,  0,  0, 37
6, 11216, 6,KD9TQD,     0.00, 3,   boost,   38.72,  98774.00,  214.55,    0.76,    5.98, 20.2, 4.17, 4.17, 4.19,  47.32,  -2.58,   0.38, -55.80,   6.56,  -2.97,   0.21,   0.09,   0.30,   0.87, 4.17, 0.00, 0.00, 0.00, 4.17, 1, 1,  7,  42.6264594, -88.1615644,   260.0, 2024, 10, 12, 20,  0, 53,        0,        0,   0,   0,   1.9,   1.0,   1.6,  0, 18, 24, 28,  0,  0,  0,  0,  0,  0,  0,  0,  0,  0,  0, 27,  0,  0,  0,  0,  0,  0,  0,  0, 33, 35,  0, 35, 35,  0,  0, 37
6, 11216, 6,KD9TQD,     0.00, 3,   boost,   38.72,  98774.00,  214.55,    0.76,    5.98, 20.2, 4.17, 4.17, 4.19,  47.32,  -2.58,   0.38, -55.80,   6.56,  -2.97,   0.21,   0.09,   0.30,   0.93, 4.17, 0.00, 0.00, 0.00, 4.17, 1, 1,  7,  42.6264594, -88.1615644,   260.0, 2024, 10, 12, 20,  0, 53,        0,        0,   0,   0,   1.9,   1.0,   1.6,  0, 18, 24, 28,  0,  0,  0,  0,  0,  0,  0,  0,  0,  0,  0, 27,  0,  0,  0,  0,  0,  0,  0,  0, 33, 35,  0, 35, 35,  0,  0, 37
6, 11216, 6,KD9TQD,     0.01, 3,   boost,   41.24,  98774.00,  214.55,    0.76,    6.38, 20.2, 4.17, 4.17, 4.19,  47.93,   1.60,   0.12, -52.63,   4.18,  -3.03,   0.21,   0.09,   0.30,   0.97, 4.17, 0.00, 0.00, 0.00, 4.17, 1, 1,  7,  42.6264594, -88.1615644,   260.0, 2024, 10, 12, 20,  0, 53,        0,        0,   0,   0,   1.9,   1.0,   1.6,  0, 18, 24, 28,  0,  0,  0,  0,  0,  0,  0,  0,  0,  0,  0, 27,  0,  0,  0,  0,  0,  0,  0,  0, 33, 35,  0, 35, 35,  0,  0, 37
6, 11216, 6,KD9TQD,     0.01, 3,   boost,   41.24,  98774.00,  214.55,    0.76,    6.38, 20.2, 4.17, 4.17, 4.19,  47.93,   1.60,   0.12, -52.63,   4.18,  -3.03,   0.21,   0.09,   0.30,   0.97, 4.17, 0.00, 0.00, 0.00, 4.17, 1, 1,  7,  42.6264594, -88.1615644,   260.0, 2024, 10, 12, 20,  0, 53,        0,        0,   0,   0,   1.9,   1.0,   1.6,  0, 18, 24, 28,  0,  0,  0,  0,  0,  0,  0,  0,  0,  0,  0, 27,  0,  0,  0,  0,  0,  0,  0,  0, 33, 35,  0, 35, 35,  0,  0, 37
6, 11216, 6,KD9TQD,     0.02, 3,   boost,   40.23,  98789.00,  213.27,   -0.51,    6.78, 20.2, 4.16, 4.17, 4.17,  48.81,  -0.50,   0.48, -68.87,   3.02,  -0.59,   0.21,   0.09,   0.30,   1.00, 4.17, 0.00, 0.00, 0.00, 4.20, 1, 1,  7,  42.6264594, -88.1615644,   260.0, 2024, 10, 12, 20,  0, 53,        0,        0,   0,   0,   1.9,   1.0,   1.6,  0, 18, 24, 28,  0,  0,  0,  0,  0,  0,  0,  0,  0,  0,  0, 27,  0,  0,  0,  0,  0,  0,  0,  0, 33, 35,  0, 35, 35,  0,  0, 37
6, 11216, 6,KD9TQD,     0.02, 3,   boost,   40.23,  98789.00,  213.27,   -0.51,    6.78, 20.2, 4.16, 4.17, 4.17,  48.81,  -0.50,   0.48, -68.87,   3.02,  -0.59,   0.21,   0.09,   0.30,   1.00, 4.17, 0.00, 0.00, 0.00, 4.20, 1, 1,  7,  42.6264594, -88.1615644,   260.0, 2024, 10, 12, 20,  0, 53,        0,        0,   0,   0,   1.9,   1.0,   1.6,  0, 18, 24, 28,  0,  0,  0,  0,  0,  0,  0,  0,  0,  0,  0, 27,  0,  0,  0,  0,  0,  0,  0,  0, 33, 35,  0, 35, 35,  0,  0, 37
6, 11216, 6,KD9TQD,     0.03, 3,   boost,   40.74,  98789.00,  213.27,   -0.51,    7.18, 20.2, 4.16, 4.17, 4.17,  48.75,  -0.06,  -0.15, -81.62,   2.84,   1.30,   0.21,   0.09,   0.30,   1.03, 4.17, 0.00, 0.00, 0.00, 4.20, 1, 1,  7,  42.6264594, -88.1615644,   260.0, 2024, 10, 12, 20,  0, 53,        0,        0,   0,   0,   1.9,   1.0,   1.6,  0, 18, 24, 28,  0,  0,  0,  0,  0,  0,  0,  0,  0,  0,  0, 27,  0,  0,  0,  0,  0,  0,  0,  0, 33, 35,  0, 35, 35,  0,  0, 37
6, 11216, 6,KD9TQD,     0.04, 3,   boost,   39.73,  98770.00,  214.89,    1.10,    7.58, 20.2, 4.16, 4.17, 4.17,  48.98,   0.68,  -0.93, -75.70,   3.39,   0.02,   0.21,   0.09,   0.30,   1.06, 4.17, 0.00, 0.00, 0.00, 4.20, 1, 1,  7,  42.6264594, -88.1615644,   260.0, 2024, 10, 12, 20,  0, 53,        0,        0,   0,   0,   1.9,   1.0,   1.6,  0, 18, 24, 28,  0,  0,  0,  0,  0,  0,  0,  0,  0,  0,  0, 27,  0,  0,  0,  0,  0,  0,  0,  0, 33, 35,  0, 35, 35,  0,  0, 37
6, 11216, 6,KD9TQD,     0.05, 3,   boost,   39.73,  98770.00,  214.89,    1.10,    7.98, 20.2, 4.16, 4.17, 4.17,  48.63,   0.57,  -0.80, -80.40,   5.77,  -0.83,   0.21,   0.08,   0.30,   1.12, 4.17, 0.00, 0.00, 0.00, 4.20, 1, 1,  7,  42.6264594, -88.1615644,   260.0, 2024, 10, 12, 20,  0, 53,        0,        0,   0,   0,   1.9,   1.0,   1.6,  0, 18, 24, 28,  0,  0,  0,  0,  0,  0,  0,  0,  0,  0,  0, 27,  0,  0,  0,  0,  0,  0,  0,  0, 33, 35,  0, 35, 35,  0,  0, 37
6, 11216, 6,KD9TQD,     0.06, 3,   boost,   40.74,  98769.00,  214.97,    1.19,    8.38, 20.2, 4.16, 4.17, 4.17,  48.85,  -1.08,  -0.80, -95.78,   1.86,  -3.33,   0.21,   0.07,   0.30,   1.13, 4.17, 0.00, 0.00, 0.00, 4.20, 1, 1,  7,  42.6264594, -88.1615644,   260.0, 2024, 10, 12, 20,  0, 53,        0,        0,   0,   0,   1.9,   1.0,   1.6,  0, 18, 24, 28,  0,  0,  0,  0,  0,  0,  0,  0,  0,  0,  0, 27,  0,  0,  0,  0,  0,  0,  0,  0, 33, 35,  0, 35, 35,  0,  0, 37
6, 11216, 6,KD9TQD,     0.07, 3,   boost,   40.23,  98769.00,  214.97,    1.19,    8.78, 20.2, 4.16, 4.17, 4.17,  48.73,   1.22,  -1.37,-107.93,   0.33,  -1.69,   0.21,   0.07,   0.30,   1.14, 4.17, 0.00, 0.00, 0.00, 4.20, 1, 1,  7,  42.6264594, -88.1615644,   260.0, 2024, 10, 12, 20,  0, 53,        0,        0,   0,   0,   1.9,   1.0,   1.6,  0, 18, 24, 28,  0,  0,  0,  0,  0,  0,  0,  0,  0,  0,  0, 27,  0,  0,  0,  0,  0,  0,  0,  0, 33, 35,  0, 35, 35,  0,  0, 37
6, 11216, 6,KD9TQD,     0.08, 3,   boost,   39.73,  98763.00,  215.48,    1.70,    9.19, 20.2, 4.16, 4.17, 4.17,  48.78,  -4.06,  -2.00,-113.85,  -0.28,  -2.48,   0.21,   0.07,   0.30,   1.13, 4.17, 0.00, 0.00, 0.00, 4.20, 1, 1,  7,  42.6264594, -88.1615644,   260.0, 2024, 10, 12, 20,  0, 53,        0,        0,   0,   0,   1.9,   1.0,   1.6,  0, 18, 24, 28,  0,  0,  0,  0,  0,  0,  0,  0,  0,  0,  0, 27,  0,  0,  0,  0,  0,  0,  0,  0, 33, 35,  0, 35, 35,  0,  0, 37
6, 11216, 6,KD9TQD,     0.09, 3,   boost,   40.23,  98763.00,  215.48,    1.70,    9.59, 20.2, 4.16, 4.17, 4.17,  48.89,  -0.03,  -2.03,-118.67,   0.03,  -2.36,   0.21,   0.06,   0.30,   1.14, 4.17, 0.00, 0.00, 0.00, 4.20, 1, 1,  7,  42.6264594, -88.1615644,   260.0, 2024, 10, 12, 20,  0, 53,        0,        0,   0,   0,   1.9,   1.0,   1.6,  0, 18, 24, 28,  0,  0,  0,  0,  0,  0,  0,  0,  0,  0,  0, 27,  0,  0,  0,  0,  0,  0,  0,  0, 33, 35,  0, 35, 35,  0,  0, 37
6, 11216, 6,KD9TQD,     0.10, 3,   boost,   40.74,  98759.00,  215.82,    2.04,    9.99, 20.2, 4.16, 4.17, 4.17,  48.26,  -3.60,  -1.26,-130.88,  -2.05,  -0.71,   0.21,   0.06,   0.29,   1.12, 4.17, 0.00, 0.00, 0.00, 4.20, 1, 1,  7,  42.6264594, -88.1615644,   260.0, 2024, 10, 12, 20,  0, 53,        0,        0,   0,   0,   1.9,   1.0,   1.6,  0, 18, 24, 28,  0,  0,  0,  0,  0,  0,  0,  0,  0,  0,  0, 27,  0,  0,  0,  0,  0,  0,  0,  0, 33, 35,  0, 35, 35,  0,  0, 37
6, 11216, 6,KD9TQD,     0.11, 3,   boost,   39.23,  98759.00,  215.82,    2.04,   10.39, 20.2, 4.16, 4.17, 4.17,  49.08,  -0.11,  -0.55,-134.91,  -1.68,   5.27,   0.21,   0.06,   0.29,   1.09, 4.17, 0.00, 0.00, 0.00, 4.20, 1, 1,  7,  42.6264594, -88.1615644,   260.0, 2024, 10, 12, 20,  0, 53,        0,        0,   0,   0,   1.9,   1.0,   1.6,  0, 18, 24, 28,  0,  0,  0,  0,  0,  0,  0,  0,  0,  0,  0, 27,  0,  0,  0,  0,  0,  0,  0,  0, 33, 35,  0, 35, 35,  0,  0, 37
6, 11216, 6,KD9TQD,     0.12, 3,   boost,   39.73,  98766.00,  215.23,    1.44,   10.79, 20.2, 4.16, 4.17, 4.17,  50.29,  -1.44,   1.04,-148.39,  -5.89,   8.81,   0.21,   0.05,   0.29,   1.03, 4.17, 0.00, 0.00, 0.00, 4.20, 1, 1,  7,  42.6264594, -88.1615644,   260.0, 2024, 10, 12, 20,  0, 53,        0,        0,   0,   0,   1.9,   1.0,   1.6,  0, 18, 24, 28,  0,  0,  0,  0,  0,  0,  0,  0,  0,  0,  0, 27,  0,  0,  0,  0,  0,  0,  0,  0, 33, 35,  0, 35, 35,  0,  0, 37
6, 11216, 6,KD9TQD,     0.13, 3,   boost,   37.72,  98766.00,  215.23,    1.44,   11.19, 20.2, 4.16, 4.17, 4.17,  50.22,   1.85,   0.34,-149.98,  -4.73,   8.38,   0.20,   0.06,   0.27,   0.98, 4.17, 0.00, 0.00, 0.00, 4.20, 1, 1,  7,  42.6264594, -88.1615644,   260.0, 2024, 10, 12, 20,  0, 53,        0,        0,   0,   0,   1.9,   1.0,   1.6,  0, 18, 24, 28,  0,  0,  0,  0,  0,  0,  0,  0,  0,  0,  0, 27,  0,  0,  0,  0,  0,  0,  0,  0, 33, 35,  0, 35, 35,  0,  0, 37
6, 11216, 6,KD9TQD,     0.13, 3,   boost,   37.72,  98766.00,  215.23,    1.44,   11.19, 20.2, 4.16, 4.17, 4.17,  50.22,   1.85,   0.34,-149.98,  -4.73,   8.38,   0.20,   0.06,   0.27,   0.98, 4.17, 0.00, 0.00, 0.00, 4.20, 1, 1,  7,  42.6264594, -88.1615644,   260.0, 2024, 10, 12, 20,  0, 53,        0,        0,   0,   0,   1.9,   1.0,   1.6,  0, 18, 24, 28,  0,  0,  0,  0,  0,  0,  0,  0,  0,  0,  0, 27,  0,  0,  0,  0,  0,  0,  0,  0, 33, 35,  0, 35, 35,  0,  0, 37
6, 11216, 6,KD9TQD,     0.13, 3,   boost,   37.72,  98766.00,  215.23,    1.44,   11.19, 20.2, 4.16, 4.17, 4.17,  50.22,   1.85,   0.34,-149.98,  -4.73,   8.38,   0.20,   0.06,   0.27,   0.98, 4.17, 0.00, 0.00, 0.00, 4.20, 1, 1,  7,  42.6264594, -88.1615644,   260.0, 2024, 10, 12, 20,  0, 53,        0,        0,   0,   0,   1.9,   1.0,   1.6,  0, 18, 24, 28,  0,  0,  0,  0,  0,  0,  0,  0,  0,  0,  0, 27,  0,  0,  0,  0,  0,  0,  0,  0, 33, 35,  0, 35, 35,  0,  0, 37
6, 11216, 6,KD9TQD,     0.14, 3,   boost,   42.75,  98763.00,  215.48,    1.70,   11.60, 20.2, 4.16, 4.17, 4.17,  50.15,   1.36,   0.68,-151.45,   0.21,   6.19,   0.20,   0.06,   0.27,   0.98, 4.17, 0.00, 0.00, 0.00, 4.20, 1, 1,  7,  42.6264600, -88.1615466,   264.0, 2024, 10, 12, 20,  0, 54,        1,        4,  87,  70,   1.9,   1.0,   1.6,  0, 18, 24, 28,  0,  0,  0,  0,  0,  0,  0,  0,  0,  0,  0, 27,  0,  0,  0,  0,  0,  0,  0,  0, 33, 28,  0, 35, 33,  0,  0, 34
6, 11216, 6,KD9TQD,     0.15, 3,   boost,   43.25,  98763.00,  215.48,    1.70,   12.01, 20.2, 4.16, 4.17, 4.17,  49.28,  -4.75,  -1.21, -76.49,  -0.09,   0.14,   0.21,   0.06,   0.27,   0.98, 4.17, 0.00, 0.00, 0.00, 4.20, 1, 1,  7,  42.6264600, -88.1615466,   264.0, 2024, 10, 12, 20,  0, 54,        1,        4,  87,  70,   1.9,   1.0,   1.6,  0, 18, 24, 28,  0,  0,  0,  0,  0,  0,  0,  0,  0,  0,  0, 27,  0,  0,  0,  0,  0,  0,  0,  0, 33, 28,  0, 35, 33,  0,  0, 34
6, 11216, 6,KD9TQD,     0.16, 3,   boost,   42.24,  98759.00,  215.82,    2.04,   12.43, 20.2, 4.16, 4.17, 4.17,  50.46,   4.91,  -0.41, -58.49,  -0.89,  -0.83,   0.21,   0.05,   0.27,   0.97, 4.17, 0.00, 0.00, 0.00, 4.20, 1, 1,  7,  42.6264600, -88.1615466,   264.0, 2024, 10, 12, 20,  0, 54,        1,        4,  87,  70,   1.9,   1.0,   1.6,  0, 18, 24, 28,  0,  0,  0,  0,  0,  0,  0,  0,  0,  0,  0, 27,  0,  0,  0,  0,  0,  0,  0,  0, 33, 28,  0, 35, 33,  0,  0, 34
6, 11216, 6,KD9TQD,     0.17, 3,   boost,   42.75,  98759.00,  215.82,    2.04,   12.86, 20.2, 4.16, 4.17, 4.17,  50.83,  -1.52,   3.22, -61.54,  -1.50,  -4.49,   0.21,   0.03,   0.29,   0.96, 4.17, 0.00, 0.00, 0.00, 4.20, 1, 1,  7,  42.6264600, -88.1615466,   264.0, 2024, 10, 12, 20,  0, 54,        1,        4,  87,  70,   1.9,   1.0,   1.6,  0, 18, 24, 28,  0,  0,  0,  0,  0,  0,  0,  0,  0,  0,  0, 27,  0,  0,  0,  0,  0,  0,  0,  0, 33, 28,  0, 35, 33,  0,  0, 34
6, 11216, 6,KD9TQD,     0.18, 3,   boost,   42.75,  98746.00,  216.93,    3.14,   13.28, 20.2, 4.16, 4.17, 4.17,  50.64,   0.13,  -0.11, -64.96,   3.94,  -0.47,   0.21,   0.03,   0.29,   1.00, 4.17, 0.00, 0.00, 0.00, 4.20, 1, 1,  7,  42.6264600, -88.1615466,   264.0, 2024, 10, 12, 20,  0, 54,        1,        4,  87,  70,   1.9,   1.0,   1.6,  0, 18, 24, 28,  0,  0,  0,  0,  0,  0,  0,  0,  0,  0,  0, 27,  0,  0,  0,  0,  0,  0,  0,  0, 33, 28,  0, 35, 33,  0,  0, 34
6, 11216, 6,KD9TQD,     0.19, 3,   boost,   42.24,  98746.00,  216.93,    3.14,   13.70, 20.2, 4.16, 4.17, 4.17,  50.38,  -1.72,  -0.14, -70.03,   3.14,   5.09,   0.21,   0.03,   0.28,   1.03, 4.17, 0.00, 0.00, 0.00, 4.20, 1, 1,  7,  42.6264600, -88.1615466,   264.0, 2024, 10, 12, 20,  0, 54,        1,        4,  87,  70,   1.9,   1.0,   1.6,  0, 18, 24, 28,  0,  0,  0,  0,  0,  0,  0,  0,  0,  0,  0, 27,  0,  0,  0,  0,  0,  0,  0,  0, 33, 28,  0, 35, 33,  0,  0, 34
6, 11216, 6,KD9TQD,     0.20, 3,   boost,   40.74,  98738.00,  217.61,    3.82,   14.12, 20.2, 4.16, 4.17, 4.17,  50.29,  -0.39,  -1.17, -76.25,   0.40,   5.39,   0.21,   0.03,   0.28,   1.03, 4.17, 0.00, 0.00, 0.00, 4.20, 1, 1,  7,  42.6264600, -88.1615466,   264.0, 2024, 10, 12, 20,  0, 54,        1,        4,  87,  70,   1.9,   1.0,   1.6,  0, 18, 24, 28,  0,  0,  0,  0,  0,  0,  0,  0,  0,  0,  0, 27,  0,  0,  0,  0,  0,  0,  0,  0, 33, 28,  0, 35, 33,  0,  0, 34
6, 11216, 6,KD9TQD,     0.21, 3,   boost,   41.24,  98738.00,  217.61,    3.82,   14.54, 20.2, 4.16, 4.17, 4.17,  50.14,   1.42,  -1.12, -81.50,  -1.13,   6.55,   0.21,   0.02,   0.28,   1.02, 4.17, 0.00, 0.00, 0.00, 4.20, 1, 1,  7,  42.6264600, -88.1615466,   264.0, 2024, 10, 12, 20,  0, 54,        1,        4,  87,  70,   1.9,   1.0,   1.6,  0, 18, 24, 28,  0,  0,  0,  0,  0,  0,  0,  0,  0,  0,  0, 27,  0,  0,  0,  0,  0,  0,  0,  0, 33, 28,  0, 35, 33,  0,  0, 34
6, 11216, 6,KD9TQD,     0.22, 3,   boost,   41.74,  98735.00,  217.86,    4.08,   14.95, 20.2, 4.16, 4.17, 4.17,  50.48,   0.37,  -0.46, -84.73,  -3.51,   2.89,   0.21,   0.02,   0.28,   0.99, 4.17, 0.00, 0.00, 0.00, 4.20, 1, 1,  7,  42.6264600, -88.1615466,   264.0, 2024, 10, 12, 20,  0, 54,        1,        4,  87,  70,   1.9,   1.0,   1.6,  0, 18, 24, 28,  0,  0,  0,  0,  0,  0,  0,  0,  0,  0,  0, 27,  0,  0,  0,  0,  0,  0,  0,  0, 33, 28,  0, 35, 33,  0,  0, 34
6, 11216, 6,KD9TQD,     0.23, 3,   boost,   42.24,  98735.00,  217.86,    4.08,   15.37, 20.2, 4.16, 4.17, 4.17,  50.81,   1.01,  -0.12, -87.30,  -3.33,  -0.71,   0.21,   0.02,   0.28,   0.96, 4.17, 0.00, 0.00, 0.00, 4.20, 1, 1,  7,  42.6264600, -88.1615466,   264.0, 2024, 10, 12, 20,  0, 54,        1,        4,  87,  70,   1.9,   1.0,   1.6,  0, 18, 24, 28,  0,  0,  0,  0,  0,  0,  0,  0,  0,  0,  0, 27,  0,  0,  0,  0,  0,  0,  0,  0, 33, 28,  0, 35, 33,  0,  0, 34
6, 11216, 6,KD9TQD,     0.24, 3,   boost,   40.74,  98735.00,  217.86,    4.08,   15.78, 20.2, 4.16, 4.17, 4.17,  50.96,  -0.13,   0.30, -87.79,  -1.25,  -0.16,   0.21,   0.02,   0.28,   0.94, 4.17, 0.00, 0.00, 0.00, 4.20, 1, 1,  7,  42.6264600, -88.1615466,   264.0, 2024, 10, 12, 20,  0, 54,        1,        4,  87,  70,   1.9,   1.0,   1.6,  0, 18, 24, 28,  0,  0,  0,  0,  0,  0,  0,  0,  0,  0,  0, 27,  0,  0,  0,  0,  0,  0,  0,  0, 33, 28,  0, 35, 33,  0,  0, 34
6, 11216, 6,KD9TQD,     0.25, 3,   boost,   42.24,  98735.00,  217.86,    4.08,   16.20, 20.2, 4.16, 4.17, 4.17,  51.45,  -0.82,   0.08, -88.27,  -0.09,   0.39,   0.21,   0.02,   0.28,   0.94, 4.17, 0.00, 0.00, 0.00, 4.20, 1, 1,  7,  42.6264600, -88.1615466,   264.0, 2024, 10, 12, 20,  0, 54,        1,        4,  87,  70,   1.9,   1.0,   1.6,  0, 18, 24, 28,  0,  0,  0,  0,  0,  0,  0,  0,  0,  0,  0, 27,  0,  0,  0,  0,  0,  0,  0,  0, 33, 28,  0, 35, 33,  0,  0, 34
6, 11216, 6,KD9TQD,     0.26, 3,   boost,   41.24,  98741.00,  217.35,    3.57,   16.62, 20.2, 4.16, 4.17, 4.17,  50.92,  -0.32,  -0.47, -90.04,   0.21,   3.44,   0.21,   0.02,   0.28,   0.95, 4.17, 0.00, 0.00, 0.00, 4.20, 1, 1,  7,  42.6264600, -88.1615466,   264.0, 2024, 10, 12, 20,  0, 54,        1,        4,  87,  70,   1.9,   1.0,   1.6,  0, 18, 24, 28,  0,  0,  0,  0,  0,  0,  0,  0,  0,  0,  0, 27,  0,  0,  0,  0,  0,  0,  0,  0, 33, 28,  0, 35, 33,  0,  0, 34
6, 11216, 6,KD9TQD,     0.27, 3,   boost,   41.74,  98741.00,  217.35,    3.57,   17.03, 20.2, 4.16, 4.17, 4.17,  50.74,  -0.42,  -0.76, -91.69,  -1.25,   4.97,   0.21,   0.01,   0.27,   0.94, 4.17, 0.00, 0.00, 0.00, 4.20, 1, 1,  7,  42.6264600, -88.1615466,   264.0, 2024, 10, 12, 20,  0, 54,        1,        4,  87,  70,   1.9,   1.0,   1.6,  0, 18, 24, 28,  0,  0,  0,  0,  0,  0,  0,  0,  0,  0,  0, 27,  0,  0,  0,  0,  0,  0,  0,  0, 33, 28,  0, 35, 33,  0,  0, 34
6, 11216, 6,KD9TQD,     0.28, 3,   boost,   41.74,  98739.00,  217.52,    3.74,   17.45, 20.2, 4.16, 4.17, 4.17,  50.88,   0.31,  -0.85, -91.63,  -4.12,   4.42,   0.21,   0.01,   0.27,   0.90, 4.17, 0.00, 0.00, 0.00, 4.20, 1, 1,  7,  42.6264600, -88.1615466,   264.0, 2024, 10, 12, 20,  0, 54,        1,        4,  87,  70,   1.9,   1.0,   1.6,  0, 18, 24, 28,  0,  0,  0,  0,  0,  0,  0,  0,  0,  0,  0, 27,  0,  0,  0,  0,  0,  0,  0,  0, 33, 28,  0, 35, 33,  0,  0, 34
6, 11216, 6,KD9TQD,     0.29, 3,   boost,   42.75,  98739.00,  217.52,    3.74,   17.87, 20.2, 4.16, 4.17, 4.17,  50.88,   0.49,  -0.32, -89.98,  -4.98,   2.83,   0.20,   0.02,   0.26,   0.86, 4.17, 0.00, 0.00, 0.00, 4.20, 1, 1,  7,  42.6264600, -88.1615466,   264.0, 2024, 10, 12, 20,  0, 54,        1,        4,  87,  70,   1.9,   1.0,   1.6,  0, 18, 24, 28,  0,  0,  0,  0,  0,  0,  0,  0,  0,  0,  0, 27,  0,  0,  0,  0,  0,  0,  0,  0, 33, 28,  0, 35, 33,  0,  0, 34
6, 11216, 6,KD9TQD,     0.30, 3,   boost,   42.75,  98723.00,  218.88,    5.10,   18.30, 20.2, 4.16, 4.17, 4.17,  50.95,   0.10,   0.17, -88.58,  -5.04,   0.82,   0.20,   0.02,   0.25,   0.81, 4.17, 0.00, 0.00, 0.00, 4.20, 1, 1,  7,  42.6264600, -88.1615466,   264.0, 2024, 10, 12, 20,  0, 54,        1,        4,  87,  70,   1.9,   1.0,   1.6,  0, 18, 24, 28,  0,  0,  0,  0,  0,  0,  0,  0,  0,  0,  0, 27,  0,  0,  0,  0,  0,  0,  0,  0, 33, 28,  0, 35, 33,  0,  0, 34
6, 11216, 6,KD9TQD,     0.31, 3,   boost,   41.74,  98723.00,  218.88,    5.10,   18.72, 20.2, 4.16, 4.17, 4.17,  51.12,  -0.43,   0.11, -85.77,  -2.41,   0.76,   0.20,   0.00,   0.27,   0.79, 4.17, 0.00, 0.00, 0.00, 4.20, 1, 1,  7,  42.6264600, -88.1615466,   264.0, 2024, 10, 12, 20,  0, 54,        1,        4,  87,  70,   1.9,   1.0,   1.6,  0, 18, 24, 28,  0,  0,  0,  0,  0,  0,  0,  0,  0,  0,  0, 27,  0,  0,  0,  0,  0,  0,  0,  0, 33, 28,  0, 35, 33,  0,  0, 34
6, 11216, 6,KD9TQD,     0.32, 3,   boost,   42.75,  98720.00,  219.14,    5.35,   19.15, 20.2, 4.16, 4.17, 4.17,  51.25,  -0.54,  -0.02, -83.70,  -2.11,   2.22,   0.20,  -0.00,   0.27,   0.77, 4.17, 0.00, 0.00, 0.00, 4.20, 1, 1,  7,  42.6264600, -88.1615466,   264.0, 2024, 10, 12, 20,  0, 54,        1,        4,  87,  70,   1.9,   1.0,   1.6,  0, 18, 24, 28,  0,  0,  0,  0,  0,  0,  0,  0,  0,  0,  0, 27,  0,  0,  0,  0,  0,  0,  0,  0, 33, 28,  0, 35, 33,  0,  0, 34
6, 11216, 6,KD9TQD,     0.33, 3,   boost,   43.25,  98720.00,  219.14,    5.35,   19.57, 20.2, 4.16, 4.17, 4.17,  51.15,  -0.27,  -0.60, -82.42,  -1.68,   4.23,   0.20,  -0.00,   0.27,   0.76, 4.17, 0.00, 0.00, 0.00, 4.20, 1, 1,  7,  42.6264600, -88.1615466,   264.0, 2024, 10, 12, 20,  0, 54,        1,        4,  87,  70,   1.9,   1.0,   1.6,  0, 18, 24, 28,  0,  0,  0,  0,  0,  0,  0,  0,  0,  0,  0, 27,  0,  0,  0,  0,  0,  0,  0,  0, 33, 28,  0, 35, 33,  0,  0, 34
6, 11216, 6,KD9TQD,     0.34, 3,   boost,   43.75,  98714.00,  219.65,    5.86,   20.00, 20.2, 4.17, 4.15, 4.17,  51.10,   0.10,  -0.50, -81.56,  -2.96,   4.72,   0.20,  -0.01,   0.27,   0.74, 4.16, 0.00, 0.00, 0.00, 4.12, 1, 1,  7,  42.6264600, -88.1615466,   264.0, 2024, 10, 12, 20,  0, 54,        1,        4,  87,  70,   1.9,   1.0,   1.6,  0, 18, 24, 28,  0,  0,  0,  0,  0,  0,  0,  0,  0,  0,  0, 27,  0,  0,  0,  0,  0,  0,  0,  0, 33, 28,  0, 35, 33,  0,  0, 34
6, 11216, 6,KD9TQD,     0.34, 3,   boost,   43.75,  98714.00,  219.65,    5.86,   20.00, 20.2, 4.17, 4.15, 4.17,  51.10,   0.10,  -0.50, -81.56,  -2.96,   4.72,   0.20,  -0.01,   0.27,   0.74, 4.16, 0.00, 0.00, 0.00, 4.12, 1, 1,  7,  42.6264600, -88.1615466,   264.0, 2024, 10, 12, 20,  0, 54,        1,        4,  87,  70,   1.9,   1.0,   1.6,  0, 18, 24, 28,  0,  0,  0,  0,  0,  0,  0,  0,  0,  0,  0, 27,  0,  0,  0,  0,  0,  0,  0,  0, 33, 28,  0, 35, 33,  0,  0, 34
6, 11216, 6,KD9TQD,     0.35, 3,   boost,   41.24,  98714.00,  219.65,    5.86,   20.43, 20.2, 4.17, 4.15, 4.17,  51.14,   0.39,  -0.40, -80.22,  -4.37,   3.93,   0.20,  -0.01,   0.26,   0.71, 4.16, 0.00, 0.00, 0.00, 4.12, 1, 1,  7,  42.6264600, -88.1615466,   264.0, 2024, 10, 12, 20,  0, 54,        1,        4,  87,  70,   1.9,   1.0,   1.6,  0, 18, 24, 28,  0,  0,  0,  0,  0,  0,  0,  0,  0,  0,  0, 27,  0,  0,  0,  0,  0,  0,  0,  0, 33, 28,  0, 35, 33,  0,  0, 34
6, 11216, 6,KD9TQD,     0.36, 3,   boost,   43.25,  98701.00,  220.75,    6.97,   20.86, 20.2, 4.17, 4.15, 4.17,  51.27,   0.29,   0.12, -78.33,  -4.79,   2.71,   0.20,  -0.01,   0.26,   0.68, 4.16, 0.00, 0.00, 0.00, 4.12, 1, 1,  7,  42.6264600, -88.1615466,   264.0, 2024, 10, 12, 20,  0, 54,        1,        4,  87,  70,   1.9,   1.0,   1.6,  0, 18, 24, 28,  0,  0,  0,  0,  0,  0,  0,  0,  0,  0,  0, 27,  0,  0,  0,  0,  0,  0,  0,  0, 33, 28,  0, 35, 33,  0,  0, 34
6, 11216, 6,KD9TQD,     0.37, 3,   boost,   43.25,  98701.00,  220.75,    6.97,   21.28, 20.2, 4.17, 4.15, 4.17,  51.27,  -0.11,  -0.05, -75.58,  -4.37,   1.91,   0.21,  -0.01,   0.26,   0.65, 4.16, 0.00, 0.00, 0.00, 4.12, 1, 1,  7,  42.6264600, -88.1615466,   264.0, 2024, 10, 12, 20,  0, 54,        1,        4,  87,  70,   1.9,   1.0,   1.6,  0, 18, 24, 28,  0,  0,  0,  0,  0,  0,  0,  0,  0,  0,  0, 27,  0,  0,  0,  0,  0,  0,  0,  0, 33, 28,  0, 35, 33,  0,  0, 34
6, 11216, 6,KD9TQD,     0.38, 3,   boost,   42.24,  98702.00,  220.67,    6.89,   21.71, 20.2, 4.17, 4.15, 4.17,  51.19,  -0.24,   0.04, -73.14,  -3.02,   2.34,   0.21,  -0.01,   0.26,   0.63, 4.16, 0.00, 0.00, 0.00, 4.12, 1, 1,  7,  42.6264600, -88.1615466,   264.0, 2024, 10, 12, 20,  0, 54,        1,        4,  87,  70,   1.9,   1.0,   1.6,  0, 18, 24, 28,  0,  0,  0,  0,  0,  0,  0,  0,  0,  0,  0, 27,  0,  0,  0,  0,  0,  0,  0,  0, 33, 28,  0, 35, 33,  0,  0, 34
6, 11216, 6,KD9TQD,     0.39, 3,   boost,   42.75,  98702.00,  220.67,    6.89,   22.14, 20.2, 4.17, 4.15, 4.17,  51.03,  -0.39,  -0.06, -70.51,  -2.47,   3.44,   0.21,  -0.01,   0.26,   0.62, 4.16, 0.00, 0.00, 0.00, 4.12, 1, 1,  7,  42.6264600, -88.1615466,   264.0, 2024, 10, 12, 20,  0, 54,        1,        4,  87,  70,   1.9,   1.0,   1.6,  0, 18, 24, 28,  0,  0,  0,  0,  0,  0,  0,  0,  0,  0,  0, 27,  0,  0,  0,  0,  0,  0,  0,  0, 33, 28,  0, 35, 33,  0,  0, 34
6, 11216, 6,KD9TQD,     0.40, 3,   boost,   42.24,  98690.00,  221.69,    7.91,   22.56, 20.2, 4.17, 4.15, 4.17,  50.97,   0.08,  -0.38, -67.77,  -3.39,   4.48,   0.21,  -0.02,   0.26,   0.62, 4.16, 0.00, 0.00, 0.00, 4.12, 1, 1,  7,  42.6264600, -88.1615466,   264.0, 2024, 10, 12, 20,  0, 54,        1,        4,  87,  70,   1.9,   1.0,   1.6,  0, 18, 24, 28,  0,  0,  0,  0,  0,  0,  0,  0,  0,  0,  0, 27,  0,  0,  0,  0,  0,  0,  0,  0, 33, 28,  0, 35, 33,  0,  0, 34
6, 11216, 6,KD9TQD,     0.41, 3,   boost,   42.24,  98690.00,  221.69,    7.91,   22.98, 20.2, 4.17, 4.15, 4.17,  51.34,   0.24,   0.04, -65.02,  -3.94,   4.78,   0.20,  -0.02,   0.26,   0.61, 4.16, 0.00, 0.00, 0.00, 4.12, 1, 1,  7,  42.6264600, -88.1615466,   264.0, 2024, 10, 12, 20,  0, 54,        1,        4,  87,  70,   1.9,   1.0,   1.6,  0, 18, 24, 28,  0,  0,  0,  0,  0,  0,  0,  0,  0,  0,  0, 27,  0,  0,  0,  0,  0,  0,  0,  0, 33, 28,  0, 35, 33,  0,  0, 34
6, 11216, 6,KD9TQD,     0.42, 3,   boost,   40.74,  98679.00,  222.62,    8.84,   23.41, 20.2, 4.17, 4.15, 4.17,  51.25,   0.24,   0.10, -60.20,  -3.88,   3.20,   0.20,  -0.02,   0.25,   0.61, 4.16, 0.00, 0.00, 0.00, 4.12, 1, 1,  7,  42.6264600, -88.1615466,   264.0, 2024, 10, 12, 20,  0, 54,        1,        4,  87,  70,   1.9,   1.0,   1.6,  0, 18, 24, 28,  0,  0,  0,  0,  0,  0,  0,  0,  0,  0,  0, 27,  0,  0,  0,  0,  0,  0,  0,  0, 33, 28,  0, 35, 33,  0,  0, 34
6, 11216, 6,KD9TQD,     0.43, 3,   boost,   43.25,  98679.00,  222.62,    8.84,   23.83, 20.2, 4.17, 4.15, 4.17,  51.26,   0.25,   0.05, -55.44,  -3.08,   2.53,   0.20,  -0.01,   0.24,   0.60, 4.16, 0.00, 0.00, 0.00, 4.12, 1, 1,  7,  42.6264600, -88.1615466,   264.0, 2024, 10, 12, 20,  0, 54,        1,        4,  87,  70,   1.9,   1.0,   1.6,  0, 18, 24, 28,  0,  0,  0,  0,  0,  0,  0,  0,  0,  0,  0, 27,  0,  0,  0,  0,  0,  0,  0,  0, 33, 28,  0, 35, 33,  0,  0, 34
6, 11216, 6,KD9TQD,     0.44, 3,   boost,   43.75,  98678.00,  222.71,    8.93,   24.26, 20.2, 4.17, 4.15, 4.17,  51.24,  -0.07,  -0.06, -51.71,  -2.35,   2.04,   0.20,  -0.01,   0.24,   0.60, 4.16, 0.00, 0.00, 0.00, 4.12, 1, 1,  7,  42.6264600, -88.1615466,   264.0, 2024, 10, 12, 20,  0, 54,        1,        4,  87,  70,   1.9,   1.0,   1.6,  0, 18, 24, 28,  0,  0,  0,  0,  0,  0,  0,  0,  0,  0,  0, 27,  0,  0,  0,  0,  0,  0,  0,  0, 33, 28,  0, 35, 33,  0,  0, 34
6, 11216, 6,KD9TQD,     0.45, 3,   boost,   42.24,  98678.00,  222.71,    8.93,   24.68, 20.2, 4.17, 4.15, 4.17,  51.13,  -0.12,  -0.11, -47.20,  -1.86,   2.40,   0.20,  -0.01,   0.23,   0.61, 4.16, 0.00, 0.00, 0.00, 4.12, 1, 1,  7,  42.6264600, -88.1615466,   264.0, 2024, 10, 12, 20,  0, 54,        1,        4,  87,  70,   1.9,   1.0,   1.6,  0, 18, 24, 28,  0,  0,  0,  0,  0,  0,  0,  0,  0,  0,  0, 27,  0,  0,  0,  0,  0,  0,  0,  0, 33, 28,  0, 35, 33,  0,  0, 34
6, 11216, 6,KD9TQD,     0.46, 3,   boost,   42.75,  98665.00,  223.82,   10.03,   25.11, 20.2, 4.17, 4.15, 4.17,  51.17,  -0.02,  -0.14, -44.63,  -2.41,   3.20,   0.20,  -0.03,   0.25,   0.62, 4.16, 0.00, 0.00, 0.00, 4.12, 1, 1,  7,  42.6264600, -88.1615466,   264.0, 2024, 10, 12, 20,  0, 54,        1,        4,  87,  70,   1.9,   1.0,   1.6,  0, 18, 24, 28,  0,  0,  0,  0,  0,  0,  0,  0,  0,  0,  0, 27,  0,  0,  0,  0,  0,  0,  0,  0, 33, 28,  0, 35, 33,  0,  0, 34
6, 11216, 6,KD9TQD,     0.47, 3,   boost,   42.75,  98665.00,  223.82,   10.03,   25.53, 20.2, 4.17, 4.15, 4.17,  51.15,   0.26,  -0.33, -42.32,  -3.02,   3.44,   0.20,  -0.03,   0.25,   0.63, 4.16, 0.00, 0.00, 0.00, 4.12, 1, 1,  7,  42.6264600, -88.1615466,   264.0, 2024, 10, 12, 20,  0, 54,        1,        4,  87,  70,   1.9,   1.0,   1.6,  0, 18, 24, 28,  0,  0,  0,  0,  0,  0,  0,  0,  0,  0,  0, 27,  0,  0,  0,  0,  0,  0,  0,  0, 33, 28,  0, 35, 33,  0,  0, 34
6, 11216, 6,KD9TQD,     0.48, 3,   boost,   40.74,  98647.00,  225.35,   11.56,   25.95, 20.2, 4.17, 4.15, 4.17,  51.09,   0.40,  -0.01, -39.26,  -3.21,   2.59,   0.20,  -0.03,   0.25,   0.63, 4.16, 0.00, 0.00, 0.00, 4.12, 1, 1,  7,  42.6264600, -88.1615466,   264.0, 2024, 10, 12, 20,  0, 54,        1,        4,  87,  70,   1.9,   1.0,   1.6,  0, 18, 24, 28,  0,  0,  0,  0,  0,  0,  0,  0,  0,  0,  0, 27,  0,  0,  0,  0,  0,  0,  0,  0, 33, 28,  0, 35, 33,  0,  0, 34
6, 11216, 6,KD9TQD,     0.49, 3,   boost,   42.75,  98647.00,  225.35,   11.56,   26.38, 20.2, 4.17, 4.15, 4.17,  51.37,   0.40,   0.17, -35.05,  -3.51,   1.79,   0.20,  -0.03,   0.25,   0.63, 4.16, 0.00, 0.00, 0.00, 4.12, 1, 1,  7,  42.6264600, -88.1615466,   264.0, 2024, 10, 12, 20,  0, 54,        1,        4,  87,  70,   1.9,   1.0,   1.6,  0, 18, 24, 28,  0,  0,  0,  0,  0,  0,  0,  0,  0,  0,  0, 27,  0,  0,  0,  0,  0,  0,  0,  0, 33, 28,  0, 35, 33,  0,  0, 34
6, 11216, 6,KD9TQD,     0.50, 3,   boost,   41.74,  98649.00,  225.18,   11.39,   26.80, 20.2, 4.17, 4.15, 4.17,  51.21,   0.49,   0.27, -31.63,  -2.11,   1.00,   0.20,  -0.03,   0.25,   0.63, 4.16, 0.00, 0.00, 0.00, 4.12, 1, 1,  7,  42.6264600, -88.1615466,   264.0, 2024, 10, 12, 20,  0, 54,        1,        4,  87,  70,   1.9,   1.0,   1.6,  0, 18, 24, 28,  0,  0,  0,  0,  0,  0,  0,  0,  0,  0,  0, 27,  0,  0,  0,  0,  0,  0,  0,  0, 33, 28,  0, 35, 33,  0,  0, 34
6, 11216, 6,KD9TQD,     0.51, 3,   boost,   43.25,  98649.00,  225.18,   11.39,   27.23, 20.2, 4.17, 4.15, 4.17,  51.22,   0.22,   0.06, -28.22,  -1.68,   0.69,   0.20,  -0.03,   0.25,   0.63, 4.16, 0.00, 0.00, 0.00, 4.12, 1, 1,  7,  42.6264600, -88.1615466,   264.0, 2024, 10, 12, 20,  0, 54,        1,        4,  87,  70,   1.9,   1.0,   1.6,  0, 18, 24, 28,  0,  0,  0,  0,  0,  0,  0,  0,  0,  0,  0, 27,  0,  0,  0,  0,  0,  0,  0,  0, 33, 28,  0, 35, 33,  0,  0, 34
6, 11216, 6,KD9TQD,     0.52, 3,   boost,   43.75,  98638.00,  226.11,   12.33,   27.66, 20.2, 4.17, 4.15, 4.17,  51.25,   0.22,  -0.01, -25.84,  -1.50,   0.88,   0.20,  -0.03,   0.25,   0.64, 4.16, 0.00, 0.00, 0.00, 4.12, 1, 1,  7,  42.6264600, -88.1615466,   264.0, 2024, 10, 12, 20,  0, 54,        1,        4,  87,  70,   1.9,   1.0,   1.6,  0, 18, 24, 28,  0,  0,  0,  0,  0,  0,  0,  0,  0,  0,  0, 27,  0,  0,  0,  0,  0,  0,  0,  0, 33, 28,  0, 35, 33,  0,  0, 34
6, 11216, 6,KD9TQD,     0.53, 3,   boost,   42.75,  98638.00,  226.11,   12.33,   28.09, 20.2, 4.17, 4.15, 4.17,  51.08,   0.23,  -0.18, -23.58,  -2.23,   1.06,   0.20,  -0.03,   0.25,   0.64, 4.16, 0.00, 0.00, 0.00, 4.12, 1, 1,  7,  42.6264600, -88.1615466,   264.0, 2024, 10, 12, 20,  0, 54,        1,        4,  87,  70,   1.9,   1.0,   1.6,  0, 18, 24, 28,  0,  0,  0,  0,  0,  0,  0,  0,  0,  0,  0, 27,  0,  0,  0,  0,  0,  0,  0,  0, 33, 28,  0, 35, 33,  0,  0, 34
6, 11216, 6,KD9TQD,     0.54, 3,   boost,   44.26,  98614.00,  228.15,   14.37,   28.52, 20.2, 4.17, 4.15, 4.17,  51.27,   0.38,  -0.07, -20.46,  -2.72,   0.82,   0.20,  -0.03,   0.25,   0.64, 4.16, 0.00, 0.00, 0.00, 4.12, 1, 1,  7,  42.6264600, -88.1615466,   264.0, 2024, 10, 12, 20,  0, 54,        1,        4,  87,  70,   1.9,   1.0,   1.6,  0, 18, 24, 28,  0,  0,  0,  0,  0,  0,  0,  0,  0,  0,  0, 27,  0,  0,  0,  0,  0,  0,  0,  0, 33, 28,  0, 35, 33,  0,  0, 34
6, 11216, 6,KD9TQD,     0.55, 3,   boost,   42.24,  98614.00,  228.15,   14.37,   28.95, 20.2, 4.17, 4.15, 4.17,  51.18,   0.51,   0.02, -17.17,  -2.84,   0.21,   0.20,  -0.03,   0.25,   0.63, 4.16, 0.00, 0.00, 0.00, 4.12, 1, 1,  7,  42.6264600, -88.1615466,   264.0, 2024, 10, 12, 20,  0, 54,        1,        4,  87,  70,   1.9,   1.0,   1.6,  0, 18, 24, 28,  0,  0,  0,  0,  0,  0,  0,  0,  0,  0,  0, 27,  0,  0,  0,  0,  0,  0,  0,  0, 33, 28,  0, 35, 33,  0,  0, 34
