#version,serial,flight,call,time,state,state_name,acceleration,pressure,altitude,height,speed,temperature,drogue_voltage,main_voltage,battery_voltage,accel_x,accel_y,accel_z,gyro_roll,gyro_pitch,gyro_yaw,mag_x,mag_y,mag_z,tilt,pyro,igniter_a,igniter_b,igniter_c,igniter_d,connected,locked,nsat,latitude,longitude,altitude,year,month,day,hour,minute,second,pad_dist,pad_range,pad_az,pad_el,pdop,hdop,vdop,sat01,sat02,sat03,sat04,sat05,sat06,sat07,sat08,sat09,sat10,sat11,sat12,sat13,sat14,sat15,sat16,sat17,sat18,sat19,sat20,sat21,sat22,sat23,sat24,sat25,sat26,sat27,sat28,sat29,sat30,sat31,sat32
6, 11216, 7,KD9TQD,    -0.30, 3,   boost,   -0.50,  99842.00,  124.19,    0.42,    0.00,  8.7, 4.09, 0.00, 4.11,  -9.87,   0.18,   0.26,  -0.53,  -0.30,   0.30,  -0.33,   0.14,   0.58,   1.69, 4.11, 0.00, 0.01, 0.00, 4.10, 1, 1, 11,  40.3905722, -87.5098117,   220.0, 2025,  2, 22, 20, 24, 11,        0,        0,   0,   0,   1.4,   1.1,   0.9, 39, 39, 35,  0,  0, 27,  0,  0,  0,  0, 33,  0,  0, 30,  0,  0, 36,  0, 22,  0,  0, 21,  0,  0,  0,  0,  0,  0,  0, 25,  0,  0
6, 11216, 7,KD9TQD,    -0.29, 3,   boost,    0.50,  99844.00,  124.02,    0.25,    0.00,  8.7, 4.09, 0.00, 4.11,  -9.83,   0.27,   0.19,   0.02,  -0.05,   0.24,  -0.33,   0.14,   0.58,   1.69, 4.11, 0.00, 0.01, 0.00, 4.10, 1, 1, 11,  40.3905722, -87.5098117,   220.0, 2025,  2, 22, 20, 24, 11,        0,        0,   0,   0,   1.4,   1.1,   0.9, 39, 39, 35,  0,  0, 27,  0,  0,  0,  0, 33,  0,  0, 30,  0,  0, 36,  0, 22,  0,  0, 21,  0,  0,  0,  0,  0,  0,  0, 25,  0,  0
6, 11216, 7,KD9TQD,    -0.28, 3,   boost,   -1.01,  99844.00,  124.02,    0.25,    0.00,  8.7, 4.09, 0.00, 4.11,  -9.86,   0.06,   0.40,  -0.04,  -0.36,   0.12,  -0.33,   0.14,   0.58,   1.69, 4.11, 0.00, 0.01, 0.00, 4.10, 1, 1, 11,  40.3905722, -87.5098117,   220.0, 2025,  2, 22, 20, 24, 11,        0,        0,   0,   0,   1.4,   1.1,   0.9, 39, 39, 35,  0,  0, 27,  0,  0,  0,  0, 33,  0,  0, 30,  0,  0, 36,  0, 22,  0,  0, 21,  0,  0,  0,  0,  0,  0,  0, 25,  0,  0
6, 11216, 7,KD9TQD,    -0.27, 3,   boost,   -0.00,  99850.00,  123.51,   -0.25,    0.00,  8.7, 4.09, 0.00, 4.11,  -9.93,   0.43,   0.34,  -0.29,  -0.24,   0.12,  -0.33,   0.14,   0.58,   1.69, 4.11, 0.00, 0.01, 0.00, 4.10, 1, 1, 11,  40.3905722, -87.5098117,   220.0, 2025,  2, 22, 20, 24, 11,        0,        0,   0,   0,   1.4,   1.1,   0.9, 39, 39, 35,  0,  0, 27,  0,  0,  0,  0, 33,  0,  0, 30,  0,  0, 36,  0, 22,  0,  0, 21,  0,  0,  0,  0,  0,  0,  0, 25,  0,  0
6, 11216, 7,KD9TQD,    -0.26, 3,   boost,   -0.00,  99850.00,  123.51,   -0.25,    0.00,  8.7, 4.09, 0.00, 4.11,  -9.94,  -0.08,   0.26,   0.57,  -0.18,   0.18,  -0.33,   0.14,   0.58,   1.69, 4.11, 0.00, 0.01, 0.00, 4.10, 1, 1, 11,  40.3905722, -87.5098117,   220.0, 2025,  2, 22, 20, 24, 11,        0,        0,   0,   0,   1.4,   1.1,   0.9, 39, 39, 35,  0,  0, 27,  0,  0,  0,  0, 33,  0,  0, 30,  0,  0, 36,  0, 22,  0,  0, 21,  0,  0,  0,  0,  0,  0,  0, 25,  0,  0
6, 11216, 7,KD9TQD,    -0.25, 3,   boost,   -0.00,  99849.00,  123.60,   -0.17,    0.00,  8.7, 4.09, 0.00, 4.11,  -9.91,   0.53,   0.02,   0.75,  -0.24,  -0.00,  -0.33,   0.14,   0.58,   1.69, 4.11, 0.00, 0.01, 0.00, 4.10, 1, 1, 11,  40.3905722, -87.5098117,   220.0, 2025,  2, 22, 20, 24, 11,        0,        0,   0,   0,   1.4,   1.1,   0.9, 39, 39, 35,  0,  0, 27,  0,  0,  0,  0, 33,  0,  0, 30,  0,  0, 36,  0, 22,  0,  0, 21,  0,  0,  0,  0,  0,  0,  0, 25,  0,  0
6, 11216, 7,KD9TQD,    -0.24, 3,   boost,   -1.01,  99849.00,  123.60,   -0.17,    0.00,  8.7, 4.09, 0.00, 4.11,  -9.89,  -0.13,   0.15,  -0.53,  -0.30,   0.06,  -0.33,   0.14,   0.58,   1.69, 4.11, 0.00, 0.01, 0.00, 4.10, 1, 1, 11,  40.3905722, -87.5098117,   220.0, 2025,  2, 22, 20, 24, 11,        0,        0,   0,   0,   1.4,   1.1,   0.9, 39, 39, 35,  0,  0, 27,  0,  0,  0,  0, 33,  0,  0, 30,  0,  0, 36,  0, 22,  0,  0, 21,  0,  0,  0,  0,  0,  0,  0, 25,  0,  0
6, 11216, 7,KD9TQD,    -0.23, 3,   boost,    0.50,  99839.00,  124.44,    0.67,    0.00,  8.7, 4.09, 0.00, 4.11,  -9.91,   0.60,   0.09,   0.20,  -0.12,   0.30,  -0.33,   0.14,   0.58,   1.69, 4.11, 0.00, 0.01, 0.00, 4.10, 1, 1, 11,  40.3905722, -87.5098117,   220.0, 2025,  2, 22, 20, 24, 11,        0,        0,   0,   0,   1.4,   1.1,   0.9, 39, 39, 35,  0,  0, 27,  0,  0,  0,  0, 33,  0,  0, 30,  0,  0, 36,  0, 22,  0,  0, 21,  0,  0,  0,  0,  0,  0,  0, 25,  0,  0
6, 11216, 7,KD9TQD,    -0.22, 3,   boost,   -0.50,  99839.00,  124.44,    0.67,    0.00,  8.7, 4.09, 0.00, 4.11,  -9.86,   0.18,   0.28,   0.08,  -0.12,   0.12,  -0.33,   0.14,   0.58,   1.69, 4.11, 0.00, 0.01, 0.00, 4.10, 1, 1, 11,  40.3905722, -87.5098117,   220.0, 2025,  2, 22, 20, 24, 11,        0,        0,   0,   0,   1.4,   1.1,   0.9, 39, 39, 35,  0,  0, 27,  0,  0,  0,  0, 33,  0,  0, 30,  0,  0, 36,  0, 22,  0,  0, 21,  0,  0,  0,  0,  0,  0,  0, 25,  0,  0
6, 11216, 7,KD9TQD,    -0.21, 3,   boost,   -0.00,  99845.00,  123.93,    0.17,    0.00,  8.7, 4.09, 0.00, 4.11,  -9.86,   0.09,   0.36,   0.87,  -0.05,   0.24,  -0.33,   0.14,   0.58,   1.69, 4.11, 0.00, 0.01, 0.00, 4.10, 1, 1, 11,  40.3905722, -87.5098117,   220.0, 2025,  2, 22, 20, 24, 11,        0,        0,   0,   0,   1.4,   1.1,   0.9, 39, 39, 35,  0,  0, 27,  0,  0,  0,  0, 33,  0,  0, 30,  0,  0, 36,  0, 22,  0,  0, 21,  0,  0,  0,  0,  0,  0,  0, 25,  0,  0
6, 11216, 7,KD9TQD,    -0.20, 3,   boost,   -0.50,  99845.00,  123.93,    0.17,    0.00,  8.7, 4.09, 0.00, 4.11,  -9.81,   0.44,   0.07,  -0.84,   0.01,  -0.00,  -0.33,   0.14,   0.58,   1.69, 4.11, 0.00, 0.01, 0.00, 4.10, 1, 1, 11,  40.3905722, -87.5098117,   220.0, 2025,  2, 22, 20, 24, 11,        0,        0,   0,   0,   1.4,   1.1,   0.9, 39, 39, 35,  0,  0, 27,  0,  0,  0,  0, 33,  0,  0, 30,  0,  0, 36,  0, 22,  0,  0, 21,  0,  0,  0,  0,  0,  0,  0, 25,  0,  0
6, 11216, 7,KD9TQD,    -0.19, 3,   boost,   -0.00,  99847.00,  123.76,    0.00,    0.00,  8.7, 4.09, 0.00, 4.11,  -9.88,   0.03,   0.14,   0.51,   0.19,   0.12,  -0.33,   0.14,   0.58,   1.69, 4.11, 0.00, 0.01, 0.00, 4.10, 1, 1, 11,  40.3905722, -87.5098117,   220.0, 2025,  2, 22, 20, 24, 11,        0,        0,   0,   0,   1.4,   1.1,   0.9, 39, 39, 35,  0,  0, 27,  0,  0,  0,  0, 33,  0,  0, 30,  0,  0, 36,  0, 22,  0,  0, 21,  0,  0,  0,  0,  0,  0,  0, 25,  0,  0
6, 11216, 7,KD9TQD,    -0.18, 3,   boost,   -2.51,  99847.00,  123.76,    0.00,    0.00,  8.7, 4.09, 0.00, 4.11,  -9.84,   0.48,   0.16,   0.32,   0.37,  -0.25,  -0.33,   0.14,   0.58,   1.69, 4.11, 0.00, 0.01, 0.00, 4.10, 1, 1, 11,  40.3905722, -87.5098117,   220.0, 2025,  2, 22, 20, 24, 11,        0,        0,   0,   0,   1.4,   1.1,   0.9, 39, 39, 35,  0,  0, 27,  0,  0,  0,  0, 33,  0,  0, 30,  0,  0, 36,  0, 22,  0,  0, 21,  0,  0,  0,  0,  0,  0,  0, 25,  0,  0
6, 11216, 7,KD9TQD,    -0.17, 3,   boost,   -0.00,  99850.00,  123.51,   -0.25,    0.00,  8.7, 4.09, 0.00, 4.11,  -9.92,  -0.35,   0.19,   0.32,   0.01,   0.12,  -0.33,   0.14,   0.58,   1.69, 4.11, 0.00, 0.01, 0.00, 4.10, 1, 1, 11,  40.3905722, -87.5098117,   220.0, 2025,  2, 22, 20, 24, 11,        0,        0,   0,   0,   1.4,   1.1,   0.9, 39, 39, 35,  0,  0, 27,  0,  0,  0,  0, 33,  0,  0, 30,  0,  0, 36,  0, 22,  0,  0, 21,  0,  0,  0,  0,  0,  0,  0, 25,  0,  0
6, 11216, 7,KD9TQD,    -0.16, 3,   boost,   -0.50,  99850.00,  123.51,   -0.25,    0.00,  8.7, 4.09, 0.00, 4.11,  -9.87,   0.52,   0.29,  -0.47,   0.31,  -0.19,  -0.33,   0.14,   0.58,   1.69, 4.11, 0.00, 0.01, 0.00, 4.10, 1, 1, 11,  40.3905722, -87.5098117,   220.0, 2025,  2, 22, 20, 24, 11,        0,        0,   0,   0,   1.4,   1.1,   0.9, 39, 39, 35,  0,  0, 27,  0,  0,  0,  0, 33,  0,  0, 30,  0,  0, 36,  0, 22,  0,  0, 21,  0,  0,  0,  0,  0,  0,  0, 25,  0,  0
6, 11216, 7,KD9TQD,    -0.15, 3,   boost,   -0.00,  99862.00,  122.50,   -1.26,    0.00,  8.7, 4.09, 0.00, 4.11,  -9.89,  -0.24,   0.21,   0.44,   0.07,  -0.19,  -0.33,   0.14,   0.58,   1.69, 4.11, 0.00, 0.01, 0.00, 4.10, 1, 1, 11,  40.3905722, -87.5098117,   220.0, 2025,  2, 22, 20, 24, 11,        0,        0,   0,   0,   1.4,   1.1,   0.9, 39, 39, 35,  0,  0, 27,  0,  0,  0,  0, 33,  0,  0, 30,  0,  0, 36,  0, 22,  0,  0, 21,  0,  0,  0,  0,  0,  0,  0, 25,  0,  0
6, 11216, 7,KD9TQD,    -0.14, 3,   boost,   -2.01,  99862.00,  122.50,   -1.26,    0.00,  8.7, 4.09, 0.00, 4.11,  -9.87,   0.36,   0.23,   0.02,   0.19,   0.06,  -0.33,   0.14,   0.58,   1.69, 4.11, 0.00, 0.01, 0.00, 4.10, 1, 1, 11,  40.3905722, -87.5098117,   220.0, 2025,  2, 22, 20, 24, 11,        0,        0,   0,   0,   1.4,   1.1,   0.9, 39, 39, 35,  0,  0, 27,  0,  0,  0,  0, 33,  0,  0, 30,  0,  0, 36,  0, 22,  0,  0, 21,  0,  0,  0,  0,  0,  0,  0, 25,  0,  0
6, 11216, 7,KD9TQD,    -0.13, 3,   boost,   -2.01,  99858.00,  122.84,   -0.93,    0.00,  8.7, 4.09, 0.00, 4.11,  -9.94,   0.20,   0.17,  -0.35,   0.19,   0.06,  -0.33,   0.14,   0.58,   1.69, 4.11, 0.00, 0.01, 0.00, 4.10, 1, 1, 11,  40.3905722, -87.5098117,   220.0, 2025,  2, 22, 20, 24, 11,        0,        0,   0,   0,   1.4,   1.1,   0.9, 39, 39, 35,  0,  0, 27,  0,  0,  0,  0, 33,  0,  0, 30,  0,  0, 36,  0, 22,  0,  0, 21,  0,  0,  0,  0,  0,  0,  0, 25,  0,  0
6, 11216, 7,KD9TQD,    -0.12, 3,   boost,   -0.00,  99858.00,  122.84,   -0.93,    0.00,  8.7, 4.09, 0.00, 4.11,  -9.77,  -0.04,   0.18,  -0.59,  -0.24,   0.06,  -0.33,   0.14,   0.58,   1.69, 4.11, 0.00, 0.01, 0.00, 4.10, 1, 1, 11,  40.3905722, -87.5098117,   220.0, 2025,  2, 22, 20, 24, 11,        0,        0,   0,   0,   1.4,   1.1,   0.9, 39, 39, 35,  0,  0, 27,  0,  0,  0,  0, 33,  0,  0, 30,  0,  0, 36,  0, 22,  0,  0, 21,  0,  0,  0,  0,  0,  0,  0, 25,  0,  0
6, 11216, 7,KD9TQD,    -0.11, 3,   boost,   -0.50,  99848.00,  123.68,   -0.08,    0.00,  8.7, 4.09, 0.00, 4.11,  -9.90,   0.40,   0.42,   0.20,   0.43,  -0.49,  -0.33,   0.14,   0.58,   1.69, 4.11, 0.00, 0.01, 0.00, 4.10, 1, 1, 11,  40.3905722, -87.5098117,   220.0, 2025,  2, 22, 20, 24, 11,        0,        0,   0,   0,   1.4,   1.1,   0.9, 39, 39, 35,  0,  0, 27,  0,  0,  0,  0, 33,  0,  0, 30,  0,  0, 36,  0, 22,  0,  0, 21,  0,  0,  0,  0,  0,  0,  0, 25,  0,  0
6, 11216, 7,KD9TQD,    -0.10, 3,   boost,    0.50,  99848.00,  123.68,   -0.08,    0.03,  8.7, 4.09, 0.00, 4.11,  -9.84,  -0.08,   0.24,  -0.41,  -0.18,   0.06,  -0.33,   0.14,   0.58,   1.69, 4.11, 0.00, 0.01, 0.00, 4.10, 1, 1, 11,  40.3905722, -87.5098117,   220.0, 2025,  2, 22, 20, 24, 11,        0,        0,   0,   0,   1.4,   1.1,   0.9, 39, 39, 35,  0,  0, 27,  0,  0,  0,  0, 33,  0,  0, 30,  0,  0, 36,  0, 22,  0,  0, 21,  0,  0,  0,  0,  0,  0,  0, 25,  0,  0
6, 11216, 7,KD9TQD,    -0.09, 3,   boost,   -0.00,  99842.00,  124.19,    0.42,    0.11,  8.7, 4.09, 0.00, 4.11,  -9.93,   0.60,   0.40,  -0.96,  -0.12,  -0.43,  -0.33,   0.14,   0.58,   1.69, 4.11, 0.00, 0.01, 0.00, 4.10, 1, 1, 11,  40.3905722, -87.5098117,   220.0, 2025,  2, 22, 20, 24, 11,        0,        0,   0,   0,   1.4,   1.1,   0.9, 39, 39, 35,  0,  0, 27,  0,  0,  0,  0, 33,  0,  0, 30,  0,  0, 36,  0, 22,  0,  0, 21,  0,  0,  0,  0,  0,  0,  0, 25,  0,  0
6, 11216, 7,KD9TQD,    -0.08, 3,   boost,    1.01,  99842.00,  124.19,    0.42,    0.30,  8.7, 4.09, 0.00, 4.11,  -9.84,   0.08,   0.14,   0.81,  -0.30,  -0.25,  -0.33,   0.14,   0.58,   1.69, 4.11, 0.00, 0.01, 0.00, 4.10, 1, 1, 11,  40.3905722, -87.5098117,   220.0, 2025,  2, 22, 20, 24, 11,        0,        0,   0,   0,   1.4,   1.1,   0.9, 39, 39, 35,  0,  0, 27,  0,  0,  0,  0, 33,  0,  0, 30,  0,  0, 36,  0, 22,  0,  0, 21,  0,  0,  0,  0,  0,  0,  0, 25,  0,  0
6, 11216, 7,KD9TQD,    -0.07, 3,   boost,   48.78,  99840.00,  124.35,    0.59,    0.66,  8.7, 4.09, 0.00, 4.11, -10.35,   0.58,  -0.28,  -0.04,  -0.05,  -0.00,  -0.33,   0.14,   0.59,   1.69, 4.11, 0.00, 0.01, 0.00, 4.10, 1, 1, 11,  40.3905722, -87.5098117,   220.0, 2025,  2, 22, 20, 24, 11,        0,        0,   0,   0,   1.4,   1.1,   0.9, 39, 39, 35,  0,  0, 27,  0,  0,  0,  0, 33,  0,  0, 30,  0,  0, 36,  0, 22,  0,  0, 21,  0,  0,  0,  0,  0,  0,  0, 25,  0,  0
6, 11216, 7,KD9TQD,    -0.06, 3,   boost,   85.49,  99840.00,  124.35,    0.59,    1.22,  8.7, 4.09, 0.00, 4.11,-121.65,   1.29,  -7.03,   8.50,   5.62,   6.16,  -0.33,   0.14,   0.59,   1.69, 4.11, 0.00, 0.01, 0.00, 4.10, 1, 1, 11,  40.3905722, -87.5098117,   220.0, 2025,  2, 22, 20, 24, 11,        0,        0,   0,   0,   1.4,   1.1,   0.9, 39, 39, 35,  0,  0, 27,  0,  0,  0,  0, 33,  0,  0, 30,  0,  0, 36,  0, 22,  0,  0, 21,  0,  0,  0,  0,  0,  0,  0, 25,  0,  0
6, 11216, 7,KD9TQD,    -0.05, 3,   boost,  101.08,  99810.00,  126.88,    3.12,    1.95,  8.7, 4.09, 0.00, 4.11, -88.99,   1.36,   3.05, -10.18,   0.43,   3.17,  -0.32,   0.14,   0.59,   1.69, 4.11, 0.00, 0.01, 0.00, 4.10, 1, 1, 11,  40.3905722, -87.5098117,   220.0, 2025,  2, 22, 20, 24, 11,        0,        0,   0,   0,   1.4,   1.1,   0.9, 39, 39, 35,  0,  0, 27,  0,  0,  0,  0, 33,  0,  0, 30,  0,  0, 36,  0, 22,  0,  0, 21,  0,  0,  0,  0,  0,  0,  0, 25,  0,  0
6, 11216, 7,KD9TQD,    -0.04, 3,   boost,   98.57,  99810.00,  126.88,    3.12,    2.83,  8.7, 4.09, 0.00, 4.11,-108.66,  -0.92,  -5.79, -42.10,   3.73,  -6.72,  -0.31,   0.15,   0.60,   1.69, 4.11, 0.00, 0.01, 0.00, 4.10, 1, 1, 11,  40.3905722, -87.5098117,   220.0, 2025,  2, 22, 20, 24, 11,        0,        0,   0,   0,   1.4,   1.1,   0.9, 39, 39, 35,  0,  0, 27,  0,  0,  0,  0, 33,  0,  0, 30,  0,  0, 36,  0, 22,  0,  0, 21,  0,  0,  0,  0,  0,  0,  0, 25,  0,  0
6, 11216, 7,KD9TQD,    -0.03, 3,   boost,  103.10,  99819.00,  126.12,    2.36,    3.80,  8.7, 4.09, 0.00, 4.11,-111.02,   2.51,   2.16, -43.56,  -4.27,  -6.29,  -0.30,   0.15,   0.61,   1.69, 4.11, 0.00, 0.01, 0.00, 4.10, 1, 1, 11,  40.3905722, -87.5098117,   220.0, 2025,  2, 22, 20, 24, 11,        0,        0,   0,   0,   1.4,   1.1,   0.9, 39, 39, 35,  0,  0, 27,  0,  0,  0,  0, 33,  0,  0, 30,  0,  0, 36,  0, 22,  0,  0, 21,  0,  0,  0,  0,  0,  0,  0, 25,  0,  0
6, 11216, 7,KD9TQD,    -0.02, 3,   boost,  102.59,  99819.00,  126.12,    2.36,    4.81,  8.7, 4.09, 0.00, 4.11,-112.08,   2.51,  -0.86, -67.00,   2.87,   0.61,  -0.29,   0.17,   0.65,   1.69, 4.11, 0.00, 0.01, 0.00, 4.10, 1, 1, 11,  40.3905722, -87.5098117,   220.0, 2025,  2, 22, 20, 24, 11,        0,        0,   0,   0,   1.4,   1.1,   0.9, 39, 39, 35,  0,  0, 27,  0,  0,  0,  0, 33,  0,  0, 30,  0,  0, 36,  0, 22,  0,  0, 21,  0,  0,  0,  0,  0,  0,  0, 25,  0,  0
6, 11216, 7,KD9TQD,    -0.01, 3,   boost,  103.60,  99827.00,  125.45,    1.68,    5.85,  8.7, 4.09, 0.00, 4.11,-113.61,   4.33,  -6.24, -67.67,  -1.34,  -2.63,  -0.30,   0.19,   0.69,   1.69, 4.11, 0.00, 0.01, 0.00, 4.10, 1, 1, 11,  40.3905722, -87.5098117,   220.0, 2025,  2, 22, 20, 24, 11,        0,        0,   0,   0,   1.4,   1.1,   0.9, 39, 39, 35,  0,  0, 27,  0,  0,  0,  0, 33,  0,  0, 30,  0,  0, 36,  0, 22,  0,  0, 21,  0,  0,  0,  0,  0,  0,  0, 25,  0,  0
6, 11216, 7,KD9TQD,     0.00, 3,   boost,  104.60,  99827.00,  125.45,    1.68,    6.89,  8.7, 4.09, 0.00, 4.11,-113.43,  -0.34,   5.27, -55.40,   3.00,  -1.53,  -0.32,   0.22,   0.75,   1.69, 4.11, 0.00, 0.01, 0.00, 4.10, 1, 1, 11,  40.3905722, -87.5098117,   220.0, 2025,  2, 22, 20, 24, 11,        0,        0,   0,   0,   1.4,   1.1,   0.9, 39, 39, 35,  0,  0, 27,  0,  0,  0,  0, 33,  0,  0, 30,  0,  0, 36,  0, 22,  0,  0, 21,  0,  0,  0,  0,  0,  0,  0, 25,  0,  0
6, 11216, 7,KD9TQD,     0.00, 3,   boost,  104.60,  99827.00,  125.45,    1.68,    6.89,  8.7, 4.09, 0.00, 4.11,-113.43,  -0.34,   5.27, -55.40,   3.00,  -1.53,  -0.32,   0.22,   0.75,   1.69, 4.11, 0.00, 0.01, 0.00, 4.10, 1, 1, 11,  40.3905722, -87.5098117,   220.0, 2025,  2, 22, 20, 24, 11,        0,        0,   0,   0,   1.4,   1.1,   0.9, 39, 39, 35,  0,  0, 27,  0,  0,  0,  0, 33,  0,  0, 30,  0,  0, 36,  0, 22,  0,  0, 21,  0,  0,  0,  0,  0,  0,  0, 25,  0,  0
6, 11216, 7,KD9TQD,     0.00, 3,   boost,  104.60,  99827.00,  125.45,    1.68,    6.89,  8.7, 4.09, 0.00, 4.11,-113.43,  -0.34,   5.27, -55.40,   3.00,  -1.53,  -0.32,   0.22,   0.75,   1.69, 4.11, 0.00, 0.01, 0.00, 4.10, 1, 1, 11,  40.3905722, -87.5098117,   220.0, 2025,  2, 22, 20, 24, 11,        0,        0,   0,   0,   1.4,   1.1,   0.9, 39, 39, 35,  0,  0, 27,  0,  0,  0,  0, 33,  0,  0, 30,  0,  0, 36,  0, 22,  0,  0, 21,  0,  0,  0,  0,  0,  0,  0, 25,  0,  0
6, 11216, 7,KD9TQD,     0.00, 3,   boost,  104.60,  99827.00,  125.45,    1.68,    6.89,  8.7, 4.09, 0.00, 4.11,-113.43,  -0.34,   5.27, -55.40,   3.00,  -1.53,  -0.32,   0.22,   0.75,   1.69, 4.11, 0.00, 0.01, 0.00, 4.10, 1, 1, 11,  40.3905722, -87.5098117,   220.0, 2025,  2, 22, 20, 24, 11,        0,        0,   0,   0,   1.4,   1.1,   0.9, 39, 39, 35,  0,  0, 27,  0,  0,  0,  0, 33,  0,  0, 30,  0,  0, 36,  0, 22,  0,  0, 21,  0,  0,  0,  0,  0,  0,  0, 25,  0,  0
6, 11216, 7,KD9TQD,     0.00, 3,   boost,  104.60,  99827.00,  125.45,    1.68,    6.89,  8.7, 4.09, 0.00, 4.11,-113.43,  -0.34,   5.27, -55.40,   3.00,  -1.53,  -0.32,   0.22,   0.75,   1.69, 4.11, 0.00, 0.01, 0.00, 4.10, 1, 1, 11,  40.3905722, -87.5098117,   220.0, 2025,  2, 22, 20, 24, 11,        0,        0,   0,   0,   1.4,   1.1,   0.9, 39, 39, 35,  0,  0, 27,  0,  0,  0,  0, 33,  0,  0, 30,  0,  0, 36,  0, 22,  0,  0, 21,  0,  0,  0,  0,  0,  0,  0, 25,  0,  0
6, 11216, 7,KD9TQD,     0.00, 3,   boost,  104.60,  99827.00,  125.45,    1.68,    6.89,  8.7, 4.09, 0.00, 4.11,-113.43,  -0.34,   5.27, -55.40,   3.00,  -1.53,  -0.32,   0.22,   0.75,   1.68, 4.11, 0.00, 0.01, 0.00, 4.10, 1, 1, 11,  40.3905722, -87.5098117,   220.0, 2025,  2, 22, 20, 24, 11,        0,        0,   0,   0,   1.4,   1.1,   0.9, 39, 39, 35,  0,  0, 27,  0,  0,  0,  0, 33,  0,  0, 30,  0,  0, 36,  0, 22,  0,  0, 21,  0,  0,  0,  0,  0,  0,  0, 25,  0,  0
6, 11216, 7,KD9TQD,     0.00, 3,   boost,  104.60,  99827.00,  125.45,    1.68,    6.89,  8.7, 4.09, 0.00, 4.11,-113.43,  -0.34,   5.27, -55.40,   3.00,  -1.53,  -0.32,   0.22,   0.75,   1.68, 4.11, 0.00, 0.01, 0.00, 4.10, 1, 1, 11,  40.3905722, -87.5098117,   220.0, 2025,  2, 22, 20, 24, 11,        0,        0,   0,   0,   1.4,   1.1,   0.9, 39, 39, 35,  0,  0, 27,  0,  0,  0,  0, 33,  0,  0, 30,  0,  0, 36,  0, 22,  0,  0, 21,  0,  0,  0,  0,  0,  0,  0, 25,  0,  0
6, 11216, 7,KD9TQD,     0.00, 3,   boost,  104.60,  99827.00,  125.45,    1.68,    6.89,  8.7, 4.09, 0.00, 4.11,-113.43,  -0.34,   5.27, -55.40,   3.00,  -1.53,  -0.32,   0.22,   0.75,   1.68, 4.11, 0.00, 0.01, 0.00, 4.10, 1, 1, 11,  40.3905722, -87.5098117,   220.0, 2025,  2, 22, 20, 24, 11,        0,        0,   0,   0,   1.4,   1.1,   0.9, 39, 39, 35,  0,  0, 27,  0,  0,  0,  0, 33,  0,  0, 30,  0,  0, 36,  0, 22,  0,  0, 21,  0,  0,  0,  0,  0,  0,  0, 25,  0,  0
6, 11216, 7,KD9TQD,     0.00, 3,   boost,  104.60,  99827.00,  125.45,    1.68,    6.89,  8.7, 4.09, 0.00, 4.11,-113.43,  -0.34,   5.27, -55.40,   3.00,  -1.53,  -0.32,   0.22,   0.75,   1.67, 4.11, 0.00, 0.01, 0.00, 4.10, 1, 1, 11,  40.3905722, -87.5098117,   220.0, 2025,  2, 22, 20, 24, 11,        0,        0,   0,   0,   1.4,   1.1,   0.9, 39, 39, 35,  0,  0, 27,  0,  0,  0,  0, 33,  0,  0, 30,  0,  0, 36,  0, 22,  0,  0, 21,  0,  0,  0,  0,  0,  0,  0, 25,  0,  0
6, 11216, 7,KD9TQD,     0.00, 3,   boost,  104.60,  99827.00,  125.45,    1.68,    6.89,  8.7, 4.09, 0.00, 4.11,-113.43,  -0.34,   5.27, -55.40,   3.00,  -1.53,  -0.32,   0.22,   0.75,   1.67, 4.11, 0.00, 0.01, 0.00, 4.10, 1, 1, 11,  40.3905722, -87.5098117,   220.0, 2025,  2, 22, 20, 24, 11,        0,        0,   0,   0,   1.4,   1.1,   0.9, 39, 39, 35,  0,  0, 27,  0,  0,  0,  0, 33,  0,  0, 30,  0,  0, 36,  0, 22,  0,  0, 21,  0,  0,  0,  0,  0,  0,  0, 25,  0,  0
6, 11216, 7,KD9TQD,     0.00, 3,   boost,  104.60,  99827.00,  125.45,    1.68,    6.89,  8.7, 4.09, 0.00, 4.11,-113.43,  -0.34,   5.27, -55.40,   3.00,  -1.53,  -0.32,   0.22,   0.75,   1.67, 4.11, 0.00, 0.01, 0.00, 4.10, 1, 1, 11,  40.3905722, -87.5098117,   220.0, 2025,  2, 22, 20, 24, 11,        0,        0,   0,   0,   1.4,   1.1,   0.9, 39, 39, 35,  0,  0, 27,  0,  0,  0,  0, 33,  0,  0, 30,  0,  0, 36,  0, 22,  0,  0, 21,  0,  0,  0,  0,  0,  0,  0, 25,  0,  0
6, 11216, 7,KD9TQD,     0.00, 3,   boost,  104.60,  99827.00,  125.45,    1.68,    6.89,  8.7, 4.09, 0.00, 4.11,-113.43,  -0.34,   5.27, -55.40,   3.00,  -1.53,  -0.32,   0.22,   0.75,   1.67, 4.11, 0.00, 0.01, 0.00, 4.10, 1, 1, 11,  40.3905722, -87.5098117,   220.0, 2025,  2, 22, 20, 24, 11,        0,        0,   0,   0,   1.4,   1.1,   0.9, 39, 39, 35,  0,  0, 27,  0,  0,  0,  0, 33,  0,  0, 30,  0,  0, 36,  0, 22,  0,  0, 21,  0,  0,  0,  0,  0,  0,  0, 25,  0,  0
6, 11216, 7,KD9TQD,     0.00, 3,   boost,  104.60,  99827.00,  125.45,    1.68,    6.89,  8.7, 4.09, 0.00, 4.11,-113.43,  -0.34,   5.27, -55.40,   3.00,  -1.53,  -0.32,   0.22,   0.75,   1.67, 4.11, 0.00, 0.01, 0.00, 4.10, 1, 1, 11,  40.3905722, -87.5098117,   220.0, 2025,  2, 22, 20, 24, 11,        0,        0,   0,   0,   1.4,   1.1,   0.9, 39, 39, 35,  0,  0, 27,  0,  0,  0,  0, 33,  0,  0, 30,  0,  0, 36,  0, 22,  0,  0, 21,  0,  0,  0,  0,  0,  0,  0, 25,  0,  0
6, 11216, 7,KD9TQD,     0.00, 3,   boost,  104.60,  99827.00,  125.45,    1.68,    6.89,  8.7, 4.09, 0.00, 4.11,-113.43,  -0.34,   5.27, -55.40,   3.00,  -1.53,  -0.32,   0.22,   0.75,   1.66, 4.11, 0.00, 0.01, 0.00, 4.10, 1, 1, 11,  40.3905722, -87.5098117,   220.0, 2025,  2, 22, 20, 24, 11,        0,        0,   0,   0,   1.4,   1.1,   0.9, 39, 39, 35,  0,  0, 27,  0,  0,  0,  0, 33,  0,  0, 30,  0,  0, 36,  0, 22,  0,  0, 21,  0,  0,  0,  0,  0,  0,  0, 25,  0,  0
6, 11216, 7,KD9TQD,     0.00, 3,   boost,  104.60,  99827.00,  125.45,    1.68,    6.89,  8.7, 4.09, 0.00, 4.11,-113.43,  -0.34,   5.27, -55.40,   3.00,  -1.53,  -0.32,   0.22,   0.75,   1.66, 4.11, 0.00, 0.01, 0.00, 4.10, 1, 1, 11,  40.3905722, -87.5098117,   220.0, 2025,  2, 22, 20, 24, 11,        0,        0,   0,   0,   1.4,   1.1,   0.9, 39, 39, 35,  0,  0, 27,  0,  0,  0,  0, 33,  0,  0, 30,  0,  0, 36,  0, 22,  0,  0, 21,  0,  0,  0,  0,  0,  0,  0, 25,  0,  0
6, 11216, 7,KD9TQD,     0.00, 3,   boost,  104.60,  99827.00,  125.45,    1.68,    6.89,  8.7, 4.09, 0.00, 4.11,-113.43,  -0.34,   5.27, -55.40,   3.00,  -1.53,  -0.32,   0.22,   0.75,   1.66, 4.11, 0.00, 0.01, 0.00, 4.10, 1, 1, 11,  40.3905722, -87.5098117,   220.0, 2025,  2, 22, 20, 24, 11,        0,        0,   0,   0,   1.4,   1.1,   0.9, 39, 39, 35,  0,  0, 27,  0,  0,  0,  0, 33,  0,  0, 30,  0,  0, 36,  0, 22,  0,  0, 21,  0,  0,  0,  0,  0,  0,  0, 25,  0,  0
6, 11216, 7,KD9TQD,     0.00, 3,   boost,  104.60,  99827.00,  125.45,    1.68,    6.89,  8.7, 4.09, 0.00, 4.11,-113.43,  -0.34,   5.27, -55.40,   3.00,  -1.53,  -0.32,   0.22,   0.75,   1.67, 4.11, 0.00, 0.01, 0.00, 4.10, 1, 1, 11,  40.3905722, -87.5098117,   220.0, 2025,  2, 22, 20, 24, 11,        0,        0,   0,   0,   1.4,   1.1,   0.9, 39, 39, 35,  0,  0, 27,  0,  0,  0,  0, 33,  0,  0, 30,  0,  0, 36,  0, 22,  0,  0, 21,  0,  0,  0,  0,  0,  0,  0, 25,  0,  0
6, 11216, 7,KD9TQD,     0.00, 3,   boost,  104.60,  99827.00,  125.45,    1.68,    6.89,  8.7, 4.09, 0.00, 4.11,-113.43,  -0.34,   5.27, -55.40,   3.00,  -1.53,  -0.32,   0.22,   0.75,   1.67, 4.11, 0.00, 0.01, 0.00, 4.10, 1, 1, 11,  40.3905722, -87.5098117,   220.0, 2025,  2, 22, 20, 24, 11,        0,        0,   0,   0,   1.4,   1.1,   0.9, 39, 39, 35,  0,  0, 27,  0,  0,  0,  0, 33,  0,  0, 30,  0,  0, 36,  0, 22,  0,  0, 21,  0,  0,  0,  0,  0,  0,  0, 25,  0,  0
6, 11216, 7,KD9TQD,     0.00, 3,   boost,  104.60,  99827.00,  125.45,    1.68,    6.89,  8.7, 4.09, 0.00, 4.11,-113.43,  -0.34,   5.27, -55.40,   3.00,  -1.53,  -0.32,   0.22,   0.75,   1.67, 4.11, 0.00, 0.01, 0.00, 4.10, 1, 1, 11,  40.3905722, -87.5098117,   220.0, 2025,  2, 22, 20, 24, 11,        0,        0,   0,   0,   1.4,   1.1,   0.9, 39, 39, 35,  0,  0, 27,  0,  0,  0,  0, 33,  0,  0, 30,  0,  0, 36,  0, 22,  0,  0, 21,  0,  0,  0,  0,  0,  0,  0, 25,  0,  0
6, 11216, 7,KD9TQD,     0.00, 3,   boost,  104.60,  99827.00,  125.45,    1.68,    6.89,  8.7, 4.09, 0.00, 4.11,-113.43,  -0.34,   5.27, -55.40,   3.00,  -1.53,  -0.32,   0.22,   0.75,   1.67, 4.11, 0.00, 0.01, 0.00, 4.10, 1, 1, 11,  40.3905722, -87.5098117,   220.0, 2025,  2, 22, 20, 24, 11,        0,        0,   0,   0,   1.4,   1.1,   0.9, 39, 39, 35,  0,  0, 27,  0,  0,  0,  0, 33,  0,  0, 30,  0,  0, 36,  0, 22,  0,  0, 21,  0,  0,  0,  0,  0,  0,  0, 25,  0,  0
6, 11216, 7,KD9TQD,     0.00, 3,   boost,  104.60,  99827.00,  125.45,    1.68,    6.89,  8.7, 4.09, 0.00, 4.11,-113.43,  -0.34,   5.27, -55.40,   3.00,  -1.53,  -0.32,   0.22,   0.75,   1.67, 4.11, 0.00, 0.01, 0.00, 4.10, 1, 1, 11,  40.3905722, -87.5098117,   220.0, 2025,  2, 22, 20, 24, 11,        0,        0,   0,   0,   1.4,   1.1,   0.9, 39, 39, 35,  0,  0, 27,  0,  0,  0,  0, 33,  0,  0, 30,  0,  0, 36,  0, 22,  0,  0, 21,  0,  0,  0,  0,  0,  0,  0, 25,  0,  0
6, 11216, 7,KD9TQD,     0.00, 3,   boost,  104.60,  99827.00,  125.45,    1.68,    6.89,  8.7, 4.09, 0.00, 4.11,-113.43,  -0.34,   5.27, -55.40,   3.00,  -1.53,  -0.32,   0.22,   0.75,   1.68, 4.11, 0.00, 0.01, 0.00, 4.10, 1, 1, 11,  40.3905722, -87.5098117,   220.0, 2025,  2, 22, 20, 24, 11,        0,        0,   0,   0,   1.4,   1.1,   0.9, 39, 39, 35,  0,  0, 27,  0,  0,  0,  0, 33,  0,  0, 30,  0,  0, 36,  0, 22,  0,  0, 21,  0,  0,  0,  0,  0,  0,  0, 25,  0,  0
6, 11216, 7,KD9TQD,     0.00, 3,   boost,  104.60,  99827.00,  125.45,    1.68,    6.89,  8.7, 4.09, 0.00, 4.11,-113.43,  -0.34,   5.27, -55.40,   3.00,  -1.53,  -0.32,   0.22,   0.75,   1.67, 4.11, 0.00, 0.01, 0.00, 4.10, 1, 1, 11,  40.3905722, -87.5098117,   220.0, 2025,  2, 22, 20, 24, 11,        0,        0,   0,   0,   1.4,   1.1,   0.9, 39, 39, 35,  0,  0, 27,  0,  0,  0,  0, 33,  0,  0, 30,  0,  0, 36,  0, 22,  0,  0, 21,  0,  0,  0,  0,  0,  0,  0, 25,  0,  0
6, 11216, 7,KD9TQD,     0.00, 3,   boost,  104.60,  99827.00,  125.45,    1.68,    6.89,  8.7, 4.09, 0.00, 4.11,-113.43,  -0.34,   5.27, -55.40,   3.00,  -1.53,  -0.32,   0.22,   0.75,   1.68, 4.11, 0.00, 0.01, 0.00, 4.10, 1, 1, 11,  40.3905722, -87.5098117,   220.0, 2025,  2, 22, 20, 24, 11,        0,        0,   0,   0,   1.4,   1.1,   0.9, 39, 39, 35,  0,  0, 27,  0,  0,  0,  0, 33,  0,  0, 30,  0,  0, 36,  0, 22,  0,  0, 21,  0,  0,  0,  0,  0,  0,  0, 25,  0,  0
6, 11216, 7,KD9TQD,     0.00, 3,   boost,  104.60,  99827.00,  125.45,    1.68,    6.89,  8.7, 4.09, 0.00, 4.11,-113.43,  -0.34,   5.27, -55.40,   3.00,  -1.53,  -0.32,   0.22,   0.75,   1.68, 4.11, 0.00, 0.01, 0.00, 4.10, 1, 1, 11,  40.3905722, -87.5098117,   220.0, 2025,  2, 22, 20, 24, 11,        0,        0,   0,   0,   1.4,   1.1,   0.9, 39, 39, 35,  0,  0, 27,  0,  0,  0,  0, 33,  0,  0, 30,  0,  0, 36,  0, 22,  0,  0, 21,  0,  0,  0,  0,  0,  0,  0, 25,  0,  0
6, 11216, 7,KD9TQD,     0.00, 3,   boost,  104.60,  99827.00,  125.45,    1.68,    6.89,  8.7, 4.09, 0.00, 4.11,-113.43,  -0.34,   5.27, -55.40,   3.00,  -1.53,  -0.32,   0.22,   0.75,   1.68, 4.11, 0.00, 0.01, 0.00, 4.10, 1, 1, 11,  40.3905722, -87.5098117,   220.0, 2025,  2, 22, 20, 24, 11,        0,        0,   0,   0,   1.4,   1.1,   0.9, 39, 39, 35,  0,  0, 27,  0,  0,  0,  0, 33,  0,  0, 30,  0,  0, 36,  0, 22,  0,  0, 21,  0,  0,  0,  0,  0,  0,  0, 25,  0,  0
6, 11216, 7,KD9TQD,     0.00, 3,   boost,  104.60,  99827.00,  125.45,    1.68,    6.89,  8.7, 4.09, 0.00, 4.11,-113.43,  -0.34,   5.27, -55.40,   3.00,  -1.53,  -0.32,   0.22,   0.75,   1.68, 4.11, 0.00, 0.01, 0.00, 4.10, 1, 1, 11,  40.3905722, -87.5098117,   220.0, 2025,  2, 22, 20, 24, 11,        0,        0,   0,   0,   1.4,   1.1,   0.9, 39, 39, 35,  0,  0, 27,  0,  0,  0,  0, 33,  0,  0, 30,  0,  0, 36,  0, 22,  0,  0, 21,  0,  0,  0,  0,  0,  0,  0, 25,  0,  0
6, 11216, 7,KD9TQD,     0.00, 3,   boost,  104.60,  99827.00,  125.45,    1.68,    6.89,  8.7, 4.09, 0.00, 4.11,-113.43,  -0.34,   5.27, -55.40,   3.00,  -1.53,  -0.32,   0.22,   0.75,   1.68, 4.11, 0.00, 0.01, 0.00, 4.10, 1, 1, 11,  40.3905722, -87.5098117,   220.0, 2025,  2, 22, 20, 24, 11,        0,        0,   0,   0,   1.4,   1.1,   0.9, 39, 39, 35,  0,  0, 27,  0,  0,  0,  0, 33,  0,  0, 30,  0,  0, 36,  0, 22,  0,  0, 21,  0,  0,  0,  0,  0,  0,  0, 25,  0,  0
6, 11216, 7,KD9TQD,     0.00, 3,   boost,  104.60,  99827.00,  125.45,    1.68,    6.89,  8.7, 4.09, 0.00, 4.11,-113.43,  -0.34,   5.27, -55.40,   3.00,  -1.53,  -0.32,   0.22,   0.75,   1.68, 4.11, 0.00, 0.01, 0.00, 4.10, 1, 1, 11,  40.3905722, -87.5098117,   220.0, 2025,  2, 22, 20, 24, 11,        0,        0,   0,   0,   1.4,   1.1,   0.9, 39, 39, 35,  0,  0, 27,  0,  0,  0,  0, 33,  0,  0, 30,  0,  0, 36,  0, 22,  0,  0, 21,  0,  0,  0,  0,  0,  0,  0, 25,  0,  0
6, 11216, 7,KD9TQD,     0.00, 3,   boost,  104.60,  99827.00,  125.45,    1.68,    6.89,  8.7, 4.09, 0.00, 4.11,-113.43,  -0.34,   5.27, -55.40,   3.00,  -1.53,  -0.32,   0.22,   0.75,   1.67, 4.11, 0.00, 0.01, 0.00, 4.10, 1, 1, 11,  40.3905722, -87.5098117,   220.0, 2025,  2, 22, 20, 24, 11,        0,        0,   0,   0,   1.4,   1.1,   0.9, 39, 39, 35,  0,  0, 27,  0,  0,  0,  0, 33,  0,  0, 30,  0,  0, 36,  0, 22,  0,  0, 21,  0,  0,  0,  0,  0,  0,  0, 25,  0,  0
6, 11216, 7,KD9TQD,     0.00, 3,   boost,  104.60,  99827.00,  125.45,    1.68,    6.89,  8.7, 4.09, 0.00, 4.11,-113.43,  -0.34,   5.27, -55.40,   3.00,  -1.53,  -0.32,   0.22,   0.75,   1.74, 4.11, 0.00, 0.01, 0.00, 4.10, 1, 1, 11,  40.3905722, -87.5098117,   220.0, 2025,  2, 22, 20, 24, 11,        0,        0,   0,   0,   1.4,   1.1,   0.9, 39, 39, 35,  0,  0, 27,  0,  0,  0,  0, 33,  0,  0, 30,  0,  0, 36,  0, 22,  0,  0, 21,  0,  0,  0,  0,  0,  0,  0, 25,  0,  0
6, 11216, 7,KD9TQD,     0.00, 3,   boost,  104.60,  99827.00,  125.45,    1.68,    6.89,  8.7, 4.09, 0.00, 4.11,-113.43,  -0.34,   5.27, -55.40,   3.00,  -1.53,  -0.32,   0.22,   0.75,   1.75, 4.11, 0.00, 0.01, 0.00, 4.10, 1, 1, 11,  40.3905722, -87.5098117,   220.0, 2025,  2, 22, 20, 24, 11,        0,        0,   0,   0,   1.4,   1.1,   0.9, 39, 39, 35,  0,  0, 27,  0,  0,  0,  0, 33,  0,  0, 30,  0,  0, 36,  0, 22,  0,  0, 21,  0,  0,  0,  0,  0,  0,  0, 25,  0,  0
6, 11216, 7,KD9TQD,     0.00, 3,   boost,  104.60,  99827.00,  125.45,    1.68,    6.89,  8.7, 4.09, 0.00, 4.11,-113.43,  -0.34,   5.27, -55.40,   3.00,  -1.53,  -0.32,   0.22,   0.75,   1.76, 4.11, 0.00, 0.01, 0.00, 4.10, 1, 1, 11,  40.3905722, -87.5098117,   220.0, 2025,  2, 22, 20, 24, 11,        0,        0,   0,   0,   1.4,   1.1,   0.9, 39, 39, 35,  0,  0, 27,  0,  0,  0,  0, 33,  0,  0, 30,  0,  0, 36,  0, 22,  0,  0, 21,  0,  0,  0,  0,  0,  0,  0, 25,  0,  0
6, 11216, 7,KD9TQD,     0.00, 3,   boost,  104.60,  99827.00,  125.45,    1.68,    6.89,  8.7, 4.09, 0.00, 4.11,-113.43,  -0.34,   5.27, -55.40,   3.00,  -1.53,  -0.32,   0.22,   0.75,   1.77, 4.11, 0.00, 0.01, 0.00, 4.10, 1, 1, 11,  40.3905722, -87.5098117,   220.0, 2025,  2, 22, 20, 24, 11,        0,        0,   0,   0,   1.4,   1.1,   0.9, 39, 39, 35,  0,  0, 27,  0,  0,  0,  0, 33,  0,  0, 30,  0,  0, 36,  0, 22,  0,  0, 21,  0,  0,  0,  0,  0,  0,  0, 25,  0,  0
6, 11216, 7,KD9TQD,     0.00, 3,   boost,  104.60,  99827.00,  125.45,    1.68,    6.89,  8.7, 4.09, 0.00, 4.11,-113.43,  -0.34,   5.27, -55.40,   3.00,  -1.53,  -0.32,   0.22,   0.75,   1.80, 4.11, 0.00, 0.01, 0.00, 4.10, 1, 1, 11,  40.3905722, -87.5098117,   220.0, 2025,  2, 22, 20, 24, 11,        0,        0,   0,   0,   1.4,   1.1,   0.9, 39, 39, 35,  0,  0, 27,  0,  0,  0,  0, 33,  0,  0, 30,  0,  0, 36,  0, 22,  0,  0, 21,  0,  0,  0,  0,  0,  0,  0, 25,  0,  0
6, 11216, 7,KD9TQD,     0.01, 3,   boost,  106.62,  99858.00,  122.84,   -0.93,    7.95,  8.7, 4.09, 0.00, 4.11,-114.17,   1.49,  -4.48, -71.46,   2.45,  -1.10,  -0.32,   0.22,   0.75,   1.83, 4.11, 0.00, 0.01, 0.00, 4.10, 1, 1, 11,  40.3905722, -87.5098117,   220.0, 2025,  2, 22, 20, 24, 11,        0,        0,   0,   0,   1.4,   1.1,   0.9, 39, 39, 35,  0,  0, 27,  0,  0,  0,  0, 33,  0,  0, 30,  0,  0, 36,  0, 22,  0,  0, 21,  0,  0,  0,  0,  0,  0,  0, 25,  0,  0
6, 11216, 7,KD9TQD,     0.01, 3,   boost,  106.62,  99858.00,  122.84,   -0.93,    7.95,  8.7, 4.09, 0.00, 4.11,-114.17,   1.49,  -4.48, -71.46,   2.45,  -1.10,  -0.32,   0.22,   0.75,   1.83, 4.11, 0.00, 0.01, 0.00, 4.10, 1, 1, 11,  40.3905722, -87.5098117,   220.0, 2025,  2, 22, 20, 24, 11,        0,        0,   0,   0,   1.4,   1.1,   0.9, 39, 39, 35,  0,  0, 27,  0,  0,  0,  0, 33,  0,  0, 30,  0,  0, 36,  0, 22,  0,  0, 21,  0,  0,  0,  0,  0,  0,  0, 25,  0,  0
6, 11216, 7,KD9TQD,     0.02, 3,   boost,  109.63,  99858.00,  122.84,   -0.93,    9.02,  8.7, 4.09, 0.01, 4.11,-119.34,  -2.23,   6.11, -56.50,   0.25,  -0.31,  -0.41,   0.24,   0.78,   1.83, 4.12, 0.00, 0.00, 0.00, 4.10, 1, 1, 11,  40.3905722, -87.5098117,   220.0, 2025,  2, 22, 20, 24, 11,        0,        0,   0,   0,   1.4,   1.1,   0.9, 39, 39, 35,  0,  0, 27,  0,  0,  0,  0, 33,  0,  0, 30,  0,  0, 36,  0, 22,  0,  0, 21,  0,  0,  0,  0,  0,  0,  0, 25,  0,  0
6, 11216, 7,KD9TQD,     0.02, 3,   boost,  109.63,  99858.00,  122.84,   -0.93,    9.02,  8.7, 4.09, 0.01, 4.11,-119.34,  -2.23,   6.11, -56.50,   0.25,  -0.31,  -0.41,   0.24,   0.78,   1.83, 4.12, 0.00, 0.00, 0.00, 4.10, 1, 1, 11,  40.3905722, -87.5098117,   220.0, 2025,  2, 22, 20, 24, 11,        0,        0,   0,   0,   1.4,   1.1,   0.9, 39, 39, 35,  0,  0, 27,  0,  0,  0,  0, 33,  0,  0, 30,  0,  0, 36,  0, 22,  0,  0, 21,  0,  0,  0,  0,  0,  0,  0, 25,  0,  0
6, 11216, 7,KD9TQD,     0.03, 3,   boost,  107.62,  99846.00,  123.85,    0.08,   10.10,  8.7, 4.09, 0.01, 4.11,-120.04,   2.38,   0.41, -48.63,   0.80,   0.91,  -0.47,   0.23,   0.76,   1.83, 4.12, 0.00, 0.00, 0.00, 4.10, 1, 1, 11,  40.3905722, -87.5098117,   220.0, 2025,  2, 22, 20, 24, 11,        0,        0,   0,   0,   1.4,   1.1,   0.9, 39, 39, 35,  0,  0, 27,  0,  0,  0,  0, 33,  0,  0, 30,  0,  0, 36,  0, 22,  0,  0, 21,  0,  0,  0,  0,  0,  0,  0, 25,  0,  0
6, 11216, 7,KD9TQD,     0.04, 3,   boost,  108.63,  99846.00,  123.85,    0.08,   11.19,  8.7, 4.09, 0.01, 4.11,-119.22,  -2.54,   0.53, -39.17,   3.30,  -0.61,  -0.50,   0.21,   0.72,   1.86, 4.12, 0.00, 0.00, 0.00, 4.10, 1, 1, 11,  40.3905722, -87.5098117,   220.0, 2025,  2, 22, 20, 24, 11,        0,        0,   0,   0,   1.4,   1.1,   0.9, 39, 39, 35,  0,  0, 27,  0,  0,  0,  0, 33,  0,  0, 30,  0,  0, 36,  0, 22,  0,  0, 21,  0,  0,  0,  0,  0,  0,  0, 25,  0,  0
6, 11216, 7,KD9TQD,     0.05, 3,   boost,  110.64,  99813.00,  126.63,    2.86,   12.28,  8.7, 4.09, 0.01, 4.11,-120.57,   3.72,  -0.93, -34.28,   2.69,  -0.98,  -0.51,   0.17,   0.62,   1.89, 4.12, 0.00, 0.00, 0.00, 4.10, 1, 1, 11,  40.3905722, -87.5098117,   220.0, 2025,  2, 22, 20, 24, 11,        0,        0,   0,   0,   1.4,   1.1,   0.9, 39, 39, 35,  0,  0, 27,  0,  0,  0,  0, 33,  0,  0, 30,  0,  0, 36,  0, 22,  0,  0, 21,  0,  0,  0,  0,  0,  0,  0, 25,  0,  0
6, 11216, 7,KD9TQD,     0.06, 3,   boost,  110.64,  99813.00,  126.63,    2.86,   13.38,  8.7, 4.09, 0.01, 4.11,-122.36,  -1.55,  -0.60, -41.06,  -0.24,   0.85,  -0.50,   0.14,   0.56,   1.88, 4.12, 0.00, 0.00, 0.00, 4.10, 1, 1, 11,  40.3905722, -87.5098117,   220.0, 2025,  2, 22, 20, 24, 11,        0,        0,   0,   0,   1.4,   1.1,   0.9, 39, 39, 35,  0,  0, 27,  0,  0,  0,  0, 33,  0,  0, 30,  0,  0, 36,  0, 22,  0,  0, 21,  0,  0,  0,  0,  0,  0,  0, 25,  0,  0
6, 11216, 7,KD9TQD,     0.07, 3,   boost,  116.17,  99838.00,  124.52,    0.76,   14.48,  8.7, 4.09, 0.01, 4.11,-121.93,   3.79,  -2.99, -56.44,   0.19,   2.68,  -0.45,   0.11,   0.48,   1.86, 4.12, 0.00, 0.00, 0.00, 4.10, 1, 1, 11,  40.3905722, -87.5098117,   220.0, 2025,  2, 22, 20, 24, 11,        0,        0,   0,   0,   1.4,   1.1,   0.9, 39, 39, 35,  0,  0, 27,  0,  0,  0,  0, 33,  0,  0, 30,  0,  0, 36,  0, 22,  0,  0, 21,  0,  0,  0,  0,  0,  0,  0, 25,  0,  0
6, 11216, 7,KD9TQD,     0.08, 3,   boost,  105.11,  99838.00,  124.52,    0.76,   15.57,  8.7, 4.09, 0.01, 4.11,-122.74,   1.08,   3.10, -87.45,   2.39,   0.97,  -0.40,   0.08,   0.47,   1.87, 4.12, 0.00, 0.00, 0.00, 4.10, 1, 1, 11,  40.3905722, -87.5098117,   220.0, 2025,  2, 22, 20, 24, 11,        0,        0,   0,   0,   1.4,   1.1,   0.9, 39, 39, 35,  0,  0, 27,  0,  0,  0,  0, 33,  0,  0, 30,  0,  0, 36,  0, 22,  0,  0, 21,  0,  0,  0,  0,  0,  0,  0, 25,  0,  0
6, 11216, 7,KD9TQD,     0.09, 3,   boost,  106.62,  99802.00,  127.56,    3.79,   16.66,  8.7, 4.09, 0.01, 4.11,-123.41,  -3.72,   9.71,-113.26,  -9.27,  -8.00,  -0.36,   0.08,   0.49,   1.87, 4.12, 0.00, 0.00, 0.00, 4.10, 1, 1, 11,  40.3905722, -87.5098117,   220.0, 2025,  2, 22, 20, 24, 11,        0,        0,   0,   0,   1.4,   1.1,   0.9, 39, 39, 35,  0,  0, 27,  0,  0,  0,  0, 33,  0,  0, 30,  0,  0, 36,  0, 22,  0,  0, 21,  0,  0,  0,  0,  0,  0,  0, 25,  0,  0
6, 11216, 7,KD9TQD,     0.10, 3,   boost,  105.11,  99802.00,  127.56,    3.79,   17.76,  8.7, 4.09, 0.01, 4.11,-120.88,   5.62,   1.98,-143.11,  -1.82,  -7.63,  -0.35,   0.09,   0.55,   1.91, 4.12, 0.00, 0.00, 0.00, 4.10, 1, 1, 11,  40.3905722, -87.5098117,   220.0, 2025,  2, 22, 20, 24, 11,        0,        0,   0,   0,   1.4,   1.1,   0.9, 39, 39, 35,  0,  0, 27,  0,  0,  0,  0, 33,  0,  0, 30,  0,  0, 36,  0, 22,  0,  0, 21,  0,  0,  0,  0,  0,  0,  0, 25,  0,  0
6, 11216, 7,KD9TQD,     0.11, 3,   boost,  107.62,  99824.00,  125.70,    1.94,   18.87,  8.7, 4.09, 0.01, 4.11,-119.40,   7.72, -27.20,-114.30,  14.23,  -0.74,  -0.36,   0.10,   0.59,   2.01, 4.12, 0.00, 0.00, 0.00, 4.10, 1, 1, 11,  40.3905722, -87.5098117,   220.0, 2025,  2, 22, 20, 24, 11,        0,        0,   0,   0,   1.4,   1.1,   0.9, 39, 39, 35,  0,  0, 27,  0,  0,  0,  0, 33,  0,  0, 30,  0,  0, 36,  0, 22,  0,  0, 21,  0,  0,  0,  0,  0,  0,  0, 25,  0,  0
6, 11216, 7,KD9TQD,     0.12, 3,   boost,  121.70,  99824.00,  125.70,    1.94,   20.00,  8.7, 4.09, 0.01, 4.11,-118.14, -11.93,  -5.40,   1.60,   8.37,   2.19,  -0.36,   0.10,   0.59,   2.05, 4.12, 0.00, 0.00, 0.00, 4.10, 1, 1, 11,  40.3905722, -87.5098117,   220.0, 2025,  2, 22, 20, 24, 11,        0,        0,   0,   0,   1.4,   1.1,   0.9, 39, 39, 35,  0,  0, 27,  0,  0,  0,  0, 33,  0,  0, 30,  0,  0, 36,  0, 22,  0,  0, 21,  0,  0,  0,  0,  0,  0,  0, 25,  0,  0
6, 11216, 7,KD9TQD,     0.13, 3,   boost,  120.70,  99801.00,  127.64,    3.88,   21.16,  8.7, 4.09, 0.01, 4.11,-127.22,  -2.01,  -5.27, 132.10,  -0.36,  -3.06,  -0.50,   0.16,   0.68,   2.07, 4.12, 0.00, 0.00, 0.00, 4.10, 1, 1, 11,  40.3905722, -87.5098117,   220.0, 2025,  2, 22, 20, 24, 11,        0,        0,   0,   0,   1.4,   1.1,   0.9, 39, 39, 35,  0,  0, 27,  0,  0,  0,  0, 33,  0,  0, 30,  0,  0, 36,  0, 22,  0,  0, 21,  0,  0,  0,  0,  0,  0,  0, 25,  0,  0
6, 11216, 7,KD9TQD,     0.14, 3,   boost,  116.67,  99801.00,  127.64,    3.88,   22.34,  8.7, 4.09, 0.01, 4.11,-129.13,  -3.15,  -1.37, 128.25,   4.95, -11.66,  -0.55,   0.04,   0.44,   2.19, 4.12, 0.00, 0.00, 0.00, 4.10, 1, 1, 11,  40.3905722, -87.5098117,   220.0, 2025,  2, 22, 20, 24, 11,        0,        0,   0,   0,   1.4,   1.1,   0.9, 39, 39, 35,  0,  0, 27,  0,  0,  0,  0, 33,  0,  0, 30,  0,  0, 36,  0, 22,  0,  0, 21,  0,  0,  0,  0,  0,  0,  0, 25,  0,  0
6, 11216, 7,KD9TQD,     0.15, 3,   boost,  120.70,  99810.00,  126.88,    3.12,   23.52,  8.7, 4.09, 0.01, 4.11,-128.92,   3.93, -13.15, 101.03,   5.87, -18.37,  -0.44,   0.00,   0.34,   2.36, 4.12, 0.00, 0.00, 0.00, 4.10, 1, 1, 11,  40.3905722, -87.5098117,   220.0, 2025,  2, 22, 20, 24, 11,        0,        0,   0,   0,   1.4,   1.1,   0.9, 39, 39, 35,  0,  0, 27,  0,  0,  0,  0, 33,  0,  0, 30,  0,  0, 36,  0, 22,  0,  0, 21,  0,  0,  0,  0,  0,  0,  0, 25,  0,  0
6, 11216, 7,KD9TQD,     0.16, 3,   boost,  118.18,  99810.00,  126.88,    3.12,   24.71,  8.7, 4.09, 0.01, 4.11,-129.61,   2.39,  -0.81,  69.72,   7.94, -17.70,  -0.42,   0.00,   0.33,   2.55, 4.12, 0.00, 0.00, 0.00, 4.10, 1, 1, 11,  40.3905722, -87.5098117,   220.0, 2025,  2, 22, 20, 24, 11,        0,        0,   0,   0,   1.4,   1.1,   0.9, 39, 39, 35,  0,  0, 27,  0,  0,  0,  0, 33,  0,  0, 30,  0,  0, 36,  0, 22,  0,  0, 21,  0,  0,  0,  0,  0,  0,  0, 25,  0,  0
6, 11216, 7,KD9TQD,     0.17, 3,   boost,  120.19,  99795.00,  128.15,    4.38,   25.90,  8.7, 4.09, 0.01, 4.11,-129.49,   4.33,  -6.75,  63.49,   3.36,  -2.38,  -0.40,   0.01,   0.33,   2.59, 4.12, 0.00, 0.00, 0.00, 4.10, 1, 1, 11,  40.3905722, -87.5098117,   220.0, 2025,  2, 22, 20, 24, 11,        0,        0,   0,   0,   1.4,   1.1,   0.9, 39, 39, 35,  0,  0, 27,  0,  0,  0,  0, 33,  0,  0, 30,  0,  0, 36,  0, 22,  0,  0, 21,  0,  0,  0,  0,  0,  0,  0, 25,  0,  0
6, 11216, 7,KD9TQD,     0.18, 3,   boost,  116.67,  99795.00,  128.15,    4.38,   27.08,  8.7, 4.09, 0.01, 4.11,-130.00,   5.28,  -2.29,  58.67,  -1.82,  11.72,  -0.40,   0.01,   0.33,   2.49, 4.12, 0.00, 0.00, 0.00, 4.10, 1, 1, 11,  40.3905722, -87.5098117,   220.0, 2025,  2, 22, 20, 24, 11,        0,        0,   0,   0,   1.4,   1.1,   0.9, 39, 39, 35,  0,  0, 27,  0,  0,  0,  0, 33,  0,  0, 30,  0,  0, 36,  0, 22,  0,  0, 21,  0,  0,  0,  0,  0,  0,  0, 25,  0,  0
6, 11216, 7,KD9TQD,     0.19, 3,   boost,  119.69,  99782.00,  129.24,    5.48,   28.27,  8.7, 4.09, 0.01, 4.11,-129.05,  -1.20,  -6.72,  49.46,  -4.45,  19.65,  -0.39,   0.02,   0.32,   2.32, 4.12, 0.00, 0.00, 0.00, 4.10, 1, 1, 11,  40.3905722, -87.5098117,   220.0, 2025,  2, 22, 20, 24, 11,        0,        0,   0,   0,   1.4,   1.1,   0.9, 39, 39, 35,  0,  0, 27,  0,  0,  0,  0, 33,  0,  0, 30,  0,  0, 36,  0, 22,  0,  0, 21,  0,  0,  0,  0,  0,  0,  0, 25,  0,  0
6, 11216, 7,KD9TQD,     0.20, 3,   boost,  119.69,  99782.00,  129.24,    5.48,   29.46,  8.7, 4.09, 0.01, 4.11,-129.41,  -6.91,  -9.78,  37.61,  -6.71,  14.28,  -0.39,   0.02,   0.32,   2.17, 4.12, 0.00, 0.00, 0.00, 4.10, 1, 1, 11,  40.3905722, -87.5098117,   220.0, 2025,  2, 22, 20, 24, 11,        0,        0,   0,   0,   1.4,   1.1,   0.9, 39, 39, 35,  0,  0, 27,  0,  0,  0,  0, 33,  0,  0, 30,  0,  0, 36,  0, 22,  0,  0, 21,  0,  0,  0,  0,  0,  0,  0, 25,  0,  0
6, 11216, 7,KD9TQD,     0.21, 3,   boost,  117.68,  99780.00,  129.41,    5.65,   30.65,  8.7, 4.09, 0.01, 4.11,-129.24,  -7.82,  -8.83,  28.58,  -6.46,   5.98,  -0.39,   0.02,   0.32,   2.09, 4.12, 0.00, 0.00, 0.00, 4.10, 1, 1, 11,  40.3905722, -87.5098117,   220.0, 2025,  2, 22, 20, 24, 11,        0,        0,   0,   0,   1.4,   1.1,   0.9, 39, 39, 35,  0,  0, 27,  0,  0,  0,  0, 33,  0,  0, 30,  0,  0, 36,  0, 22,  0,  0, 21,  0,  0,  0,  0,  0,  0,  0, 25,  0,  0
6, 11216, 7,KD9TQD,     0.22, 3,   boost,  118.69,  99780.00,  129.41,    5.65,   31.83,  8.7, 4.09, 0.01, 4.11,-129.06,  -4.76,  -9.39,  18.27,  -6.71,  -0.06,  -0.39,   0.02,   0.32,   2.04, 4.12, 0.00, 0.00, 0.00, 4.10, 1, 1, 11,  40.3905722, -87.5098117,   220.0, 2025,  2, 22, 20, 24, 11,        0,        0,   0,   0,   1.4,   1.1,   0.9, 39, 39, 35,  0,  0, 27,  0,  0,  0,  0, 33,  0,  0, 30,  0,  0, 36,  0, 22,  0,  0, 21,  0,  0,  0,  0,  0,  0,  0, 25,  0,  0
6, 11216, 7,KD9TQD,     0.23, 3,   boost,  119.69,  99753.00,  131.69,    7.92,   33.02,  8.7, 4.09, 0.01, 4.11,-129.06,  -2.90,  -9.12,  10.70,  -7.20,  -3.54,  -0.39,   0.02,   0.32,   2.01, 4.12, 0.00, 0.00, 0.00, 4.10, 1, 1, 11,  40.3905722, -87.5098117,   220.0, 2025,  2, 22, 20, 24, 11,        0,        0,   0,   0,   1.4,   1.1,   0.9, 39, 39, 35,  0,  0, 27,  0,  0,  0,  0, 33,  0,  0, 30,  0,  0, 36,  0, 22,  0,  0, 21,  0,  0,  0,  0,  0,  0,  0, 25,  0,  0
6, 11216, 7,KD9TQD,     0.24, 3,   boost,  119.19,  99753.00,  131.69,    7.92,   34.21,  8.7, 4.09, 0.01, 4.11,-128.73,   2.67,  -6.30,   2.21,  -9.76,  -1.77,  -0.39,   0.02,   0.32,   1.95, 4.12, 0.00, 0.00, 0.00, 4.10, 1, 1, 11,  40.3905722, -87.5098117,   220.0, 2025,  2, 22, 20, 24, 11,        0,        0,   0,   0,   1.4,   1.1,   0.9, 39, 39, 35,  0,  0, 27,  0,  0,  0,  0, 33,  0,  0, 30,  0,  0, 36,  0, 22,  0,  0, 21,  0,  0,  0,  0,  0,  0,  0, 25,  0,  0
6, 11216, 7,KD9TQD,     0.25, 3,   boost,  118.69,  99749.00,  132.02,    8.26,   35.39,  8.7, 4.09, 0.01, 4.11,-128.47,   3.00,  -7.31,  -5.11, -12.93,   2.74,  -0.39,   0.02,   0.32,   1.84, 4.12, 0.00, 0.00, 0.00, 4.10, 1, 1, 11,  40.3905722, -87.5098117,   220.0, 2025,  2, 22, 20, 24, 11,        0,        0,   0,   0,   1.4,   1.1,   0.9, 39, 39, 35,  0,  0, 27,  0,  0,  0,  0, 33,  0,  0, 30,  0,  0, 36,  0, 22,  0,  0, 21,  0,  0,  0,  0,  0,  0,  0, 25,  0,  0
6, 11216, 7,KD9TQD,     0.26, 3,   boost,  116.67,  99749.00,  132.02,    8.26,   36.58,  8.7, 4.09, 0.01, 4.11,-128.36,   0.15,  -6.92, -10.24, -17.63,   9.70,  -0.39,   0.02,   0.32,   1.65, 4.12, 0.00, 0.00, 0.00, 4.10, 1, 1, 11,  40.3905722, -87.5098117,   220.0, 2025,  2, 22, 20, 24, 11,        0,        0,   0,   0,   1.4,   1.1,   0.9, 39, 39, 35,  0,  0, 27,  0,  0,  0,  0, 33,  0,  0, 30,  0,  0, 36,  0, 22,  0,  0, 21,  0,  0,  0,  0,  0,  0,  0, 25,  0,  0
6, 11216, 7,KD9TQD,     0.27, 3,   boost,  119.19,  99751.00,  131.86,    8.09,   37.76,  8.7, 4.09, 0.01, 4.11,-128.05,  -0.42,  -8.24, -10.85, -21.05,  12.94,  -0.39,   0.02,   0.32,   1.42, 4.12, 0.00, 0.00, 0.00, 4.10, 1, 1, 11,  40.3905722, -87.5098117,   220.0, 2025,  2, 22, 20, 24, 11,        0,        0,   0,   0,   1.4,   1.1,   0.9, 39, 39, 35,  0,  0, 27,  0,  0,  0,  0, 33,  0,  0, 30,  0,  0, 36,  0, 22,  0,  0, 21,  0,  0,  0,  0,  0,  0,  0, 25,  0,  0
6, 11216, 7,KD9TQD,     0.28, 3,   boost,  116.67,  99751.00,  131.86,    8.09,   38.93,  8.7, 4.09, 0.01, 4.11,-127.73,  -4.95,  -9.91,  -9.08, -22.33,  11.84,  -0.39,   0.02,   0.31,   1.20, 4.12, 0.00, 0.00, 0.00, 4.10, 1, 1, 11,  40.3905722, -87.5098117,   220.0, 2025,  2, 22, 20, 24, 11,        0,        0,   0,   0,   1.4,   1.1,   0.9, 39, 39, 35,  0,  0, 27,  0,  0,  0,  0, 33,  0,  0, 30,  0,  0, 36,  0, 22,  0,  0, 21,  0,  0,  0,  0,  0,  0,  0, 25,  0,  0
6, 11216, 7,KD9TQD,     0.29, 3,   boost,  117.68,  99724.00,  134.13,   10.37,   40.11,  8.7, 4.09, 0.01, 4.11,-127.54,  -4.69,  -9.15,  -5.66, -22.27,   7.93,  -0.39,   0.02,   0.31,   1.03, 4.12, 0.00, 0.00, 0.00, 4.10, 1, 1, 11,  40.3905722, -87.5098117,   220.0, 2025,  2, 22, 20, 24, 11,        0,        0,   0,   0,   1.4,   1.1,   0.9, 39, 39, 35,  0,  0, 27,  0,  0,  0,  0, 33,  0,  0, 30,  0,  0, 36,  0, 22,  0,  0, 21,  0,  0,  0,  0,  0,  0,  0, 25,  0,  0
6, 11216, 7,KD9TQD,     0.30, 3,   boost,  117.68,  99724.00,  134.13,   10.37,   41.28,  8.7, 4.09, 0.01, 4.11,-127.36,  -2.78,  -9.71,  -0.04, -23.80,   5.31,  -0.39,   0.02,   0.31,   0.91, 4.12, 0.00, 0.00, 0.00, 4.10, 1, 1, 11,  40.3905722, -87.5098117,   220.0, 2025,  2, 22, 20, 24, 11,        0,        0,   0,   0,   1.4,   1.1,   0.9, 39, 39, 35,  0,  0, 27,  0,  0,  0,  0, 33,  0,  0, 30,  0,  0, 36,  0, 22,  0,  0, 21,  0,  0,  0,  0,  0,  0,  0, 25,  0,  0
6, 11216, 7,KD9TQD,     0.31, 3,   boost,  117.18,  99724.00,  134.13,   10.37,   42.45,  8.7, 4.09, 0.01, 4.11,-127.08,  -0.42,  -7.46,   8.81, -26.42,   6.04,  -0.39,   0.02,   0.31,   0.85, 4.12, 0.00, 0.00, 0.00, 4.10, 1, 1, 11,  40.3905722, -87.5098117,   220.0, 2025,  2, 22, 20, 24, 11,        0,        0,   0,   0,   1.4,   1.1,   0.9, 39, 39, 35,  0,  0, 27,  0,  0,  0,  0, 33,  0,  0, 30,  0,  0, 36,  0, 22,  0,  0, 21,  0,  0,  0,  0,  0,  0,  0, 25,  0,  0
6, 11216, 7,KD9TQD,     0.32, 3,   boost,  115.17,  99724.00,  134.13,   10.37,   43.61,  8.7, 4.09, 0.01, 4.11,-126.45,   1.07,  -8.41,  21.68, -30.27,   9.03,  -0.39,   0.03,   0.31,   0.86, 4.12, 0.00, 0.00, 0.00, 4.10, 1, 1, 11,  40.3905722, -87.5098117,   220.0, 2025,  2, 22, 20, 24, 11,        0,        0,   0,   0,   1.4,   1.1,   0.9, 39, 39, 35,  0,  0, 27,  0,  0,  0,  0, 33,  0,  0, 30,  0,  0, 36,  0, 22,  0,  0, 21,  0,  0,  0,  0,  0,  0,  0, 25,  0,  0
6, 11216, 7,KD9TQD,     0.33, 3,   boost,  116.67,  99703.00,  135.90,   12.14,   44.77,  8.7, 4.09, 0.01, 4.11,-126.03,  -0.25,  -7.82,  29.80, -33.38,  13.06,  -0.39,   0.03,   0.30,   0.97, 4.12, 0.00, 0.00, 0.00, 4.10, 1, 1, 11,  40.3905722, -87.5098117,   220.0, 2025,  2, 22, 20, 24, 11,        0,        0,   0,   0,   1.4,   1.1,   0.9, 39, 39, 35,  0,  0, 27,  0,  0,  0,  0, 33,  0,  0, 30,  0,  0, 36,  0, 22,  0,  0, 21,  0,  0,  0,  0,  0,  0,  0, 25,  0,  0
6, 11216, 7,KD9TQD,     0.34, 3,   boost,  114.16,  99703.00,  135.90,   12.14,   45.92,  8.7, 4.10, 0.00, 4.11,-125.66,  -1.07,  -8.94,  39.93, -35.88,  14.71,  -0.39,   0.03,   0.30,   1.20, 4.10, 0.00, 0.00, 0.00, 4.12, 1, 1, 11,  40.3905722, -87.5098117,   220.0, 2025,  2, 22, 20, 24, 11,        0,        0,   0,   0,   1.4,   1.1,   0.9, 39, 39, 35,  0,  0, 27,  0,  0,  0,  0, 33,  0,  0, 30,  0,  0, 36,  0, 22,  0,  0, 21,  0,  0,  0,  0,  0,  0,  0, 25,  0,  0
6, 11216, 7,KD9TQD,     0.34, 3,   boost,  114.16,  99703.00,  135.90,   12.14,   45.92,  8.7, 4.10, 0.00, 4.11,-125.66,  -1.07,  -8.94,  39.93, -35.88,  14.71,  -0.39,   0.03,   0.30,   1.20, 4.10, 0.00, 0.00, 0.00, 4.12, 1, 1, 11,  40.3905722, -87.5098117,   220.0, 2025,  2, 22, 20, 24, 11,        0,        0,   0,   0,   1.4,   1.1,   0.9, 39, 39, 35,  0,  0, 27,  0,  0,  0,  0, 33,  0,  0, 30,  0,  0, 36,  0, 22,  0,  0, 21,  0,  0,  0,  0,  0,  0,  0, 25,  0,  0
6, 11216, 7,KD9TQD,     0.35, 3,   boost,  114.66,  99680.00,  137.84,   14.08,   47.06,  8.7, 4.10, 0.00, 4.11,-125.40,  -3.56,  -8.66,  45.61, -37.16,  13.73,  -0.39,   0.03,   0.30,   1.51, 4.10, 0.00, 0.00, 0.00, 4.12, 1, 1, 11,  40.3905722, -87.5098117,   220.0, 2025,  2, 22, 20, 24, 11,        0,        0,   0,   0,   1.4,   1.1,   0.9, 39, 39, 35,  0,  0, 27,  0,  0,  0,  0, 33,  0,  0, 30,  0,  0, 36,  0, 22,  0,  0, 21,  0,  0,  0,  0,  0,  0,  0, 25,  0,  0
6, 11216, 7,KD9TQD,     0.36, 3,   boost,  112.15,  99680.00,  137.84,   14.08,   48.20,  8.7, 4.10, 0.00, 4.11,-125.09,  -3.36,  -8.10,  49.33, -38.32,  10.98,  -0.40,   0.04,   0.29,   1.87, 4.10, 0.00, 0.00, 0.00, 4.12, 1, 1, 11,  40.3905722, -87.5098117,   220.0, 2025,  2, 22, 20, 24, 11,        0,        0,   0,   0,   1.4,   1.1,   0.9, 39, 39, 35,  0,  0, 27,  0,  0,  0,  0, 33,  0,  0, 30,  0,  0, 36,  0, 22,  0,  0, 21,  0,  0,  0,  0,  0,  0,  0, 25,  0,  0
6, 11216, 7,KD9TQD,     0.37, 3,   boost,  113.66,  99656.00,  139.87,   16.10,   49.34,  8.7, 4.10, 0.00, 4.11,-124.81,  -1.93,  -7.46,  54.09, -39.85,   9.40,  -0.40,   0.04,   0.29,   2.25, 4.10, 0.00, 0.00, 0.00, 4.12, 1, 1, 11,  40.3905722, -87.5098117,   220.0, 2025,  2, 22, 20, 24, 11,        0,        0,   0,   0,   1.4,   1.1,   0.9, 39, 39, 35,  0,  0, 27,  0,  0,  0,  0, 33,  0,  0, 30,  0,  0, 36,  0, 22,  0,  0, 21,  0,  0,  0,  0,  0,  0,  0, 25,  0,  0
6, 11216, 7,KD9TQD,     0.38, 3,   boost,  113.15,  99656.00,  139.87,   16.10,   50.47,  8.7, 4.10, 0.00, 4.11,-124.50,  -0.45,  -5.92,  56.96, -42.54,  10.37,  -0.40,   0.04,   0.28,   2.67, 4.10, 0.00, 0.00, 0.00, 4.12, 1, 1, 11,  40.3905722, -87.5098117,   220.0, 2025,  2, 22, 20, 24, 11,        0,        0,   0,   0,   1.4,   1.1,   0.9, 39, 39, 35,  0,  0, 27,  0,  0,  0,  0, 33,  0,  0, 30,  0,  0, 36,  0, 22,  0,  0, 21,  0,  0,  0,  0,  0,  0,  0, 25,  0,  0
6, 11216, 7,KD9TQD,     0.39, 3,   boost,  114.16,  99650.00,  140.37,   16.61,   51.60,  8.7, 4.10, 0.00, 4.11,-123.99,   0.70,  -6.52,  60.50, -45.22,  12.75,  -0.40,   0.04,   0.28,   3.12, 4.10, 0.00, 0.00, 0.00, 4.12, 1, 1, 11,  40.3905722, -87.5098117,   220.0, 2025,  2, 22, 20, 24, 11,        0,        0,   0,   0,   1.4,   1.1,   0.9, 39, 39, 35,  0,  0, 27,  0,  0,  0,  0, 33,  0,  0, 30,  0,  0, 36,  0, 22,  0,  0, 21,  0,  0,  0,  0,  0,  0,  0, 25,  0,  0
6, 11216, 7,KD9TQD,     0.40, 3,   boost,  113.15,  99650.00,  140.37,   16.61,   52.72,  8.7, 4.10, 0.00, 4.11,-123.46,  -0.88,  -6.16,  60.14, -47.54,  14.40,  -0.40,   0.05,   0.27,   3.60, 4.10, 0.00, 0.00, 0.00, 4.12, 1, 1, 11,  40.3905722, -87.5098117,   220.0, 2025,  2, 22, 20, 24, 11,        0,        0,   0,   0,   1.4,   1.1,   0.9, 39, 39, 35,  0,  0, 27,  0,  0,  0,  0, 33,  0,  0, 30,  0,  0, 36,  0, 22,  0,  0, 21,  0,  0,  0,  0,  0,  0,  0, 25,  0,  0
6, 11216, 7,KD9TQD,     0.41, 3,   boost,  110.14,  99618.00,  143.07,   19.31,   53.84,  8.7, 4.10, 0.00, 4.11,-123.10,  -1.37,  -7.11,  56.96, -48.46,  14.03,  -0.40,   0.05,   0.27,   4.09, 4.10, 0.00, 0.00, 0.00, 4.12, 1, 1, 11,  40.3905722, -87.5098117,   220.0, 2025,  2, 22, 20, 24, 11,        0,        0,   0,   0,   1.4,   1.1,   0.9, 39, 39, 35,  0,  0, 27,  0,  0,  0,  0, 33,  0,  0, 30,  0,  0, 36,  0, 22,  0,  0, 21,  0,  0,  0,  0,  0,  0,  0, 25,  0,  0
6, 11216, 7,KD9TQD,     0.42, 3,   boost,  110.64,  99618.00,  143.07,   19.31,   54.95,  8.7, 4.10, 0.00, 4.11,-122.54,  -2.88,  -6.26,  51.84, -48.88,  12.08,  -0.40,   0.05,   0.26,   4.58, 4.10, 0.00, 0.00, 0.00, 4.12, 1, 1, 11,  40.3905722, -87.5098117,   220.0, 2025,  2, 22, 20, 24, 11,        0,        0,   0,   0,   1.4,   1.1,   0.9, 39, 39, 35,  0,  0, 27,  0,  0,  0,  0, 33,  0,  0, 30,  0,  0, 36,  0, 22,  0,  0, 21,  0,  0,  0,  0,  0,  0,  0, 25,  0,  0
6, 11216, 7,KD9TQD,     0.43, 3,   boost,  112.15,  99602.00,  144.42,   20.66,   56.06,  8.7, 4.10, 0.00, 4.11,-122.20,  -1.90,  -5.29,  47.81, -49.74,  10.31,  -0.41,   0.05,   0.26,   5.09, 4.10, 0.00, 0.00, 0.00, 4.12, 1, 1, 11,  40.3905722, -87.5098117,   220.0, 2025,  2, 22, 20, 24, 11,        0,        0,   0,   0,   1.4,   1.1,   0.9, 39, 39, 35,  0,  0, 27,  0,  0,  0,  0, 33,  0,  0, 30,  0,  0, 36,  0, 22,  0,  0, 21,  0,  0,  0,  0,  0,  0,  0, 25,  0,  0
6, 11216, 7,KD9TQD,     0.44, 3,   boost,  110.14,  99602.00,  144.42,   20.66,   57.16,  8.7, 4.10, 0.00, 4.11,-121.65,  -0.83,  -4.66,  44.33, -52.00,  10.43,  -0.41,   0.05,   0.25,   5.61, 4.10, 0.00, 0.00, 0.00, 4.12, 1, 1, 11,  40.3905722, -87.5098117,   220.0, 2025,  2, 22, 20, 24, 11,        0,        0,   0,   0,   1.4,   1.1,   0.9, 39, 39, 35,  0,  0, 27,  0,  0,  0,  0, 33,  0,  0, 30,  0,  0, 36,  0, 22,  0,  0, 21,  0,  0,  0,  0,  0,  0,  0, 25,  0,  0
6, 11216, 7,KD9TQD,     0.45, 3,   boost,  110.14,  99575.00,  146.70,   22.94,   58.26,  8.7, 4.10, 0.00, 4.11,-121.21,   0.25,  -3.48,  40.97, -54.50,  11.90,  -0.41,   0.05,   0.25,   6.16, 4.10, 0.00, 0.00, 0.00, 4.12, 1, 1, 11,  40.3905722, -87.5098117,   220.0, 2025,  2, 22, 20, 24, 11,        0,        0,   0,   0,   1.4,   1.1,   0.9, 39, 39, 35,  0,  0, 27,  0,  0,  0,  0, 33,  0,  0, 30,  0,  0, 36,  0, 22,  0,  0, 21,  0,  0,  0,  0,  0,  0,  0, 25,  0,  0
6, 11216, 7,KD9TQD,     0.46, 3,   boost,  109.13,  99575.00,  146.70,   22.94,   59.35,  8.7, 4.10, 0.00, 4.11,-120.66,   0.29,  -4.36,  37.19, -55.23,  13.18,  -0.41,   0.06,   0.24,   6.72, 4.10, 0.00, 0.00, 0.00, 4.12, 1, 1, 11,  40.3905722, -87.5098117,   220.0, 2025,  2, 22, 20, 24, 11,        0,        0,   0,   0,   1.4,   1.1,   0.9, 39, 39, 35,  0,  0, 27,  0,  0,  0,  0, 33,  0,  0, 30,  0,  0, 36,  0, 22,  0,  0, 21,  0,  0,  0,  0,  0,  0,  0, 25,  0,  0
6, 11216, 7,KD9TQD,     0.47, 3,   boost,  110.64,  99558.00,  148.14,   24.37,   60.44,  8.7, 4.10, 0.00, 4.11,-120.09,  -0.93,  -4.20,  34.01, -55.17,  12.88,  -0.41,   0.06,   0.24,   7.29, 4.10, 0.00, 0.00, 0.00, 4.12, 1, 1, 11,  40.3905722, -87.5098117,   220.0, 2025,  2, 22, 20, 24, 11,        0,        0,   0,   0,   1.4,   1.1,   0.9, 39, 39, 35,  0,  0, 27,  0,  0,  0,  0, 33,  0,  0, 30,  0,  0, 36,  0, 22,  0,  0, 21,  0,  0,  0,  0,  0,  0,  0, 25,  0,  0
6, 11216, 7,KD9TQD,     0.48, 3,   boost,  109.13,  99558.00,  148.14,   24.37,   61.52,  8.7, 4.10, 0.00, 4.11,-119.78,  -1.13,  -3.48,  31.21, -54.86,  11.47,  -0.41,   0.06,   0.23,   7.84, 4.10, 0.00, 0.00, 0.00, 4.12, 1, 1, 11,  40.3905722, -87.5098117,   220.0, 2025,  2, 22, 20, 24, 11,        0,        0,   0,   0,   1.4,   1.1,   0.9, 39, 39, 35,  0,  0, 27,  0,  0,  0,  0, 33,  0,  0, 30,  0,  0, 36,  0, 22,  0,  0, 21,  0,  0,  0,  0,  0,  0,  0, 25,  0,  0
6, 11216, 7,KD9TQD,     0.49, 3,   boost,  108.63,  99554.00,  148.48,   24.71,   62.59,  8.7, 4.10, 0.00, 4.11,-119.09,  -1.17,  -2.06,  30.90, -55.84,  10.56,  -0.41,   0.06,   0.23,   8.41, 4.10, 0.00, 0.00, 0.00, 4.12, 1, 1, 11,  40.3905722, -87.5098117,   220.0, 2025,  2, 22, 20, 24, 11,        0,        0,   0,   0,   1.4,   1.1,   0.9, 39, 39, 35,  0,  0, 27,  0,  0,  0,  0, 33,  0,  0, 30,  0,  0, 36,  0, 22,  0,  0, 21,  0,  0,  0,  0,  0,  0,  0, 25,  0,  0
6, 11216, 7,KD9TQD,     0.50, 3,   boost,  107.12,  99554.00,  148.48,   24.71,   63.65,  8.7, 4.10, 0.00, 4.11,-118.53,  -0.40,  -1.42,  32.85, -56.94,  10.43,  -0.42,   0.07,   0.22,   8.99, 4.10, 0.00, 0.00, 0.00, 4.12, 1, 1, 11,  40.3905722, -87.5098117,   220.0, 2025,  2, 22, 20, 24, 11,        0,        0,   0,   0,   1.4,   1.1,   0.9, 39, 39, 35,  0,  0, 27,  0,  0,  0,  0, 33,  0,  0, 30,  0,  0, 36,  0, 22,  0,  0, 21,  0,  0,  0,  0,  0,  0,  0, 25,  0,  0
6, 11216, 7,KD9TQD,     0.51, 3,   boost,  106.11,  99530.00,  150.50,   26.74,   64.71,  8.7, 4.10, 0.00, 4.11,-117.63,  -0.01,  -1.74,  34.44, -58.16,  11.59,  -0.42,   0.07,   0.22,   9.57, 4.10, 0.00, 0.00, 0.00, 4.12, 1, 1, 11,  40.3905722, -87.5098117,   220.0, 2025,  2, 22, 20, 24, 11,        0,        0,   0,   0,   1.4,   1.1,   0.9, 39, 39, 35,  0,  0, 27,  0,  0,  0,  0, 33,  0,  0, 30,  0,  0, 36,  0, 22,  0,  0, 21,  0,  0,  0,  0,  0,  0,  0, 25,  0,  0
6, 11216, 7,KD9TQD,     0.52, 3,   boost,  104.60,  99530.00,  150.50,   26.74,   65.75,  8.7, 4.10, 0.00, 4.11,-117.20,  -0.48,  -1.78,  34.38, -58.16,  12.14,  -0.42,   0.07,   0.21,  10.17, 4.10, 0.00, 0.00, 0.00, 4.12, 1, 1, 11,  40.3905722, -87.5098117,   220.0, 2025,  2, 22, 20, 24, 11,        0,        0,   0,   0,   1.4,   1.1,   0.9, 39, 39, 35,  0,  0, 27,  0,  0,  0,  0, 33,  0,  0, 30,  0,  0, 36,  0, 22,  0,  0, 21,  0,  0,  0,  0,  0,  0,  0, 25,  0,  0
6, 11216, 7,KD9TQD,     0.53, 3,   boost,  105.61,  99519.00,  151.43,   27.67,   66.78,  8.7, 4.10, 0.00, 4.11,-116.26,  -1.06,  -1.25,  33.71, -57.18,  11.65,  -0.42,   0.07,   0.21,  10.75, 4.10, 0.00, 0.00, 0.00, 4.12, 1, 1, 11,  40.3905722, -87.5098117,   220.0, 2025,  2, 22, 20, 24, 11,        0,        0,   0,   0,   1.4,   1.1,   0.9, 39, 39, 35,  0,  0, 27,  0,  0,  0,  0, 33,  0,  0, 30,  0,  0, 36,  0, 22,  0,  0, 21,  0,  0,  0,  0,  0,  0,  0, 25,  0,  0
6, 11216, 7,KD9TQD,     0.53, 3,   boost,  105.61,  99519.00,  151.43,   27.67,   66.78,  8.7, 4.10, 0.00, 4.11,-116.26,  -1.06,  -1.25,  33.71, -57.18,  11.65,  -0.42,   0.07,   0.21,  10.75, 4.10, 0.00, 0.00, 0.00, 4.12, 1, 1, 11,  40.3905722, -87.5098117,   220.0, 2025,  2, 22, 20, 24, 11,        0,        0,   0,   0,   1.4,   1.1,   0.9, 39, 39, 35,  0,  0, 27,  0,  0,  0,  0, 33,  0,  0, 30,  0,  0, 36,  0, 22,  0,  0, 21,  0,  0,  0,  0,  0,  0,  0, 25,  0,  0
6, 11216, 7,KD9TQD,     0.53, 3,   boost,  105.61,  99519.00,  151.43,   27.67,   66.78,  8.7, 4.10, 0.00, 4.11,-116.26,  -1.06,  -1.25,  33.71, -57.18,  11.65,  -0.42,   0.07,   0.21,  10.75, 4.10, 0.00, 0.00, 0.00, 4.12, 1, 1, 11,  40.3905722, -87.5098117,   220.0, 2025,  2, 22, 20, 24, 11,        0,        0,   0,   0,   1.4,   1.1,   0.9, 39, 39, 35,  0,  0, 27,  0,  0,  0,  0, 33,  0,  0, 30,  0,  0, 36,  0, 22,  0,  0, 21,  0,  0,  0,  0,  0,  0,  0, 25,  0,  0
6, 11216, 7,KD9TQD,     0.54, 3,   boost,  104.10,  99519.00,  151.43,   27.67,   67.81,  8.7, 4.10, 0.00, 4.11,-115.55,  -1.28,  -0.34,  33.95, -56.57,  10.80,  -0.42,   0.07,   0.20,  11.32, 4.10, 0.00, 0.00, 0.00, 4.12, 1, 1, 11,  40.3905166, -87.5097377,   227.0, 2025,  2, 22, 20, 24, 12,        9,       11, 135,  38,   1.4,   1.1,   0.9, 37, 35, 32,  0,  0, 25,  0,  0,  0,  0, 33,  0,  0, 22,  0,  0, 25,  0, 21,  0,  0, 20,  0,  0,  0,  0,  0,  0,  0, 30,  0,  0
6, 11216, 7,KD9TQD,     0.55, 3,   boost,  104.10,  99504.00,  152.70,   28.93,   68.83,  8.7, 4.10, 0.00, 4.11,-114.76,  -0.83,   0.57,  36.03, -57.49,   9.82,  -0.42,   0.07,   0.20,  11.90, 4.10, 0.00, 0.00, 0.00, 4.12, 1, 1, 11,  40.3905166, -87.5097377,   227.0, 2025,  2, 22, 20, 24, 12,        9,       11, 135,  38,   1.4,   1.1,   0.9, 37, 35, 32,  0,  0, 25,  0,  0,  0,  0, 33,  0,  0, 22,  0,  0, 25,  0, 21,  0,  0, 20,  0,  0,  0,  0,  0,  0,  0, 30,  0,  0
